name,@lat,@lon,addr:street,contact:phone,contact:website,opening_hours
The Pink Store,31.7823214,-107.6273869,,,,
Mariscos Gamez,31.7781115,-107.6261424,,,,
"Cafeteria ""Cristy""",31.7786822,-107.6268601,,,,
Vips,25.7084915,-100.3507470,,,,
Sierra Madre,25.6834481,-100.3546367,,,,
Toks,19.3453094,-99.1722996,Avenida Miguel Ángel de Quevedo,,,
Vips,17.9793530,-92.9387389,,,,
Sanborns Loreto,19.3387504,-99.1928585,Altamirano,,,
Sanborns,19.3470361,-99.1880177,,,,
Restaurant Adriana,16.7377281,-92.6399160,5 de Mayo,,,
Toks,19.3740688,-99.1792929,,,,
La Estación,19.3885172,-99.1909500,,,,
Taquería La Onda,19.4276384,-99.2116606,Barrilaco,,,
Restaurant el Caminante,27.9589999,-110.7666667,,,,
Restaurant la Godorniz (Fitosanitaria),31.3275258,-109.4723276,,,,
Marina del Rey (Restaurant),27.8223333,-109.8845000,,,,
Restaurant la Panchita,26.4363268,-109.0356900,,,,
Restaurant San Luisito,31.2006887,-112.4757952,,,,
Pollo Feliz,21.1117377,-101.6748761,,,,
Pizza Hut,21.1121380,-101.6761120,,,,
Italian Pizza,21.1072831,-101.6709341,,,,
El Portón Pirules,19.5413859,-99.2143498,,,,
VIPS Pirules,19.5437619,-99.2126809,,,,
Toks Santa Monica,19.5378025,-99.2166203,,,,
Lupillos Parque Hidalgo,21.1317488,-101.6909064,,,,
Cien Años,32.5234554,-117.0115478,Avenida José Maria Velasco,,,
La Parrilla,16.7406477,-92.6356513,,,,
ViaVai,16.7381549,-92.6379979,20 de Noviembre,,,
Emiliano's Moustache,16.7360835,-92.6389650,,,,
Balam,16.7363924,-92.6380387,,,,
Lety's,23.1874185,-106.4057722,,,,
Victor's,23.1874011,-106.4055951,,,,
Terraza,23.2409279,-106.4504972,,,,
,19.6989649,-98.8379447,,,,
El Mangalar,17.6264746,-101.5453742,,,,"Mo-Tu,Th-Su 11:00-21:00"
Il Mare,17.6363681,-101.5501728,,,,
Nueva Zelanda,17.6398633,-101.5582295,,,,
Los Tulipanes,16.8778163,-92.1065843,,,,
Copa Cabana,20.4983297,-86.9429640,,,,
Sorrisi,20.5085239,-86.9518146,,,,
Alberto's,20.3719211,-87.0238049,,,,
Vips,17.9726030,-92.9241849,,,,
El Portón,17.9884535,-92.9673848,,,,
Tablitas,14.9095012,-92.2652812,,,,
Papablita,14.8993988,-92.2452826,,,,
La Peña,14.9093271,-92.2485957,,,,
7 Mares,14.9079088,-92.2479691,,,,
Freedom in Paradize - Reggea beach bar,20.2927130,-86.9578455,,,,
,14.9134368,-92.2573968,,,,
Bamboo,14.9113800,-92.2641123,,,,
Tango Argentina,14.9083967,-92.2558976,,,,
Los Portales,19.3163954,-98.2377057,,,,
Barracuda Diner,19.4159735,-99.1696719,,,,
La Biela,19.4163620,-99.1706075,,,,
,19.3958298,-99.1762066,,,,
Chili's,19.3957570,-99.1719772,,,,
La Strega,19.3953223,-99.1722289,,,,
El Samurai,19.3942701,-99.1784481,Nueva York,,,
Wings Puerto Aereo,19.4343614,-99.0887508,,,,
Suntory,19.3927070,-99.1718061,Torres Adalid,,,
Japanese,19.3902748,-99.1721887,,,,
Pizza Hut,19.3971310,-99.1641036,,,,
La Mansion,19.3908224,-99.1731207,Avenida Insurgentes Sur,,,
Toks,19.3875615,-99.1742262,Avenida Insurgentes Sur,,,
Sanborns,19.3869085,-99.1742951,,,,
Pajares,19.3930539,-99.1749370,,,,
Bahía Capital,19.3866468,-99.1750622,Avenida Insurgentes Sur,,,
Le Gourmet,19.3940060,-99.1754848,,,,
Rafaello's,19.3929697,-99.1757938,,,,
Giancarlo's,19.3888172,-99.1780817,,,,
China Inn,19.3887015,-99.1777088,,,,
Vips,19.3843056,-99.1752220,San Francisco,,,07:00-22:00
,19.4349648,-99.0884382,,,,
,19.4323068,-99.1643336,,,,
,19.4287021,-99.1620496,,,,
Carnes Mixcum,15.0340761,-92.1440881,,,,
Faja de Oro Carnes,15.0317717,-92.1537440,,,,
El Conchal,31.3143198,-113.5403045,,,,Mo-Su 10:00-18:00
El asadero,20.6617978,-105.2227916,,,,
La Concha,32.4226783,-117.0969917,,,,
Fabrizzio's Pizzeria and Restaurant,32.4232823,-117.0976057,,,,
Las Mañanitas,32.3524778,-117.0599715,,,,
Los Pelicanos,32.3444081,-117.0611376,,,,
Kokoro,32.4441159,-117.0975002,,,,
La Puesta del Sol,15.9430014,-97.1781214,,,,
La Providencia,15.6643379,-96.5182081,,,,
El Haurache Veloz,19.2950180,-99.1819497,,,,
Vip's Sor Juana,19.5405276,-99.2075276,,,,
Potzocalli,19.5562470,-99.2046519,,,,
Las Alitas,17.9934947,-92.9354892,,,,
VH Cafe & Bar,17.9944539,-92.9369376,,,,
Pizza Hut,17.9980167,-92.9412948,,,,
Super Salads,17.9922355,-92.9337441,,,,
Applebee's,17.9976436,-92.9405247,,,,
Las Chonas,24.0237820,-104.6754573,,,,
Los Corrales,24.0256835,-104.6783172,,,,
Los Corrales,24.0244291,-104.6792630,,,,
Los Equipales,24.0247325,-104.6767073,,,,
El Porton,24.0353452,-104.6552926,Boulevard Felipe Pescador,,,
Buffet,17.0723417,-96.6848892,,,,
La Fogata,24.0285227,-104.6565250,,,,
La Hacienda,24.0264820,-104.6617285,,,,
Villa Durango,24.0265849,-104.6578147,,,,
Los Corrales,24.0274039,-104.6457293,H. Colegio Militar,,,
La Terraza,25.5602438,-103.4333062,,,,
Restaurant El Lobo,20.8602819,-90.3999099,,,,
Restaurant Los Pampanos,20.8615361,-90.4002555,Calle 12,+52 988 916 2661,,Mo-Su 11:00-19:00
Restaurant La Boya,20.8611701,-90.4005142,,,,
Restaurant La Palapa,20.8605832,-90.4007663,Calle 12,,,Mo-Su 11:00-19:00
Restaurant Chivirico,20.8610270,-90.4001657,,,,
Restaurant Nicte-ha,20.8607266,-90.3997856,,,,
A takear!,19.8298179,-90.5346087,,,,
Domino's Pizza,19.8455849,-90.5189754,,,,
,20.5936759,-100.3915971,,,,
Alioli Gastro Bar,20.5938109,-100.3914738,,,,
Los Compadres,20.5942973,-100.3905220,,,,
,20.5945053,-100.3906538,,,,
Los Doratitos de Tiocampo,20.5966663,-100.3602767,,,,
La Capilla,20.5964193,-100.3528436,,,,
,20.5964308,-100.3527801,,,,
El Original,20.6107035,-100.3677697,,,,
Los Naranjos,24.0247386,-104.6708173,,,,
Lugano's,24.0181329,-104.6902657,,,,
Los Equipales,24.0198001,-104.6902494,,,,
Bistro Garden,24.0471298,-104.6242553,,,,
Tacotote,25.5541193,-103.4406670,,,,
Applebee's,25.5581799,-103.4368840,,,,
Sirloin Stockade,25.5680381,-103.4236215,,,,
Diablito Blue,19.2948914,-99.1320741,,,,
Vips,19.2966268,-99.1541829,Huipulco,,,
El Portón,19.2937788,-99.1239236,,,,
La Sorella de Giovanni,22.1500934,-100.9851872,,,,
,19.1082721,-91.0121445,,,,
Vips,17.9887373,-92.9174991,,,,
Res Campestre,17.1439855,-92.8873948,,,,
Margaritas Grill,16.7377430,-92.6351727,,,,
Casa Vieja de Los Arcos,19.8454939,-90.5367192,Calle 10 Antes del Comercio,,,
Gorilla Pizza,31.8643264,-112.8478779,,,,
Toks,19.4864097,-99.0941388,,,,
El Porton,19.4784799,-99.0952666,,,,
Parador Turístico Acanceh,20.8121091,-89.4720898,,,,
Applebee's,29.0846935,-110.9835070,,,,
,29.1056343,-110.9514024,,,,
,29.1064311,-110.9513917,,,,
Xochimilco,29.0634049,-110.9584083,,,,
Cabral,29.0753904,-110.9577849,,,,
,29.0607978,-110.9545567,,,,
,19.2891111,-99.1667435,,,,
Samborns Plaza Mayor,21.1577882,-101.6941560,,,,
Attilio's,24.1332911,-110.4249933,,,,
Lorenzo's Italian,24.1330855,-110.4253795,,,,
Azul Marino,24.2147281,-110.2984778,,,,Mo-Su 13:00-22:30
Taberna del Leon,19.3389280,-99.1932447,Altamirano,,,
Azul y Oro,19.3136655,-99.1850155,,,,
La Vaca Negra,19.0446140,-98.1987564,,,,
Cafe Roma,20.6062472,-105.2356223,,,,
Chiltepinos,32.5233428,-117.0129300,Calle Diego Rivera,,,
"Los Remedios Restaurante, Bar & Cantina",32.5233013,-117.0138409,,,,
"El ""Griego"" / La Paella",32.5224467,-117.0155521,,,,
Mr. Pollo,32.5225905,-117.0173186,,,,
Asadero Sonora,32.5227307,-117.0175761,,,,
Tortas Cubanas,32.5226402,-117.0174420,,,,
Sonora Mia,32.5235523,-117.0211917,,,,
Mariscos 'El Nuevo Anclote',32.5216480,-117.0298357,,,,
,26.8979460,-111.9585017,,,,
Cafeteria CEGS,25.6701130,-100.3564610,,,,
Casa Valadez,21.0156308,-101.2527812,Jardin de La Unión,,,
La Botellita,21.0159287,-101.2531351,Luis González Obregon,,,
Sanborn's Las Águilas,19.3475275,-99.2318223,,,,
Gino's Insurgentes,19.3705670,-99.1797348,,,,
Drupa Café,19.3565075,-99.1549885,,,,
Potzolcalli,19.3453887,-99.1683757,Avenida Miguel Ángel de Quevedo,,,
Fonda 99.99,19.3753419,-99.1736325,Calle Moras,,,Tu-Sa 13:00-21:00;Su 13:00-18:00
Konditori,19.3751815,-99.1788909,Avenida Insurgentes Sur,,,Mo-Su 07:00-23:30
El Fogoncito,19.3661798,-99.1791096,Av Río Mixcoac,,,
Vips,19.4216742,-99.1633741,Avenida Insurgentes Sur,,,Mo-Su 07:00-22:00
Nagaoka,19.3915426,-99.1746948,Calle Arkansas,,,Tu-Sa 13:00-22:30; Su 13:00-19:30
Vips,19.4078532,-99.1337111,José Antonio Torres,,,Su-Th 07:00-24:00; Fr-Sa 07:00-13:00
Saint Crepier,19.3451242,-99.1695675,Avenida Miguel Ángel de Quevedo,,,
Haru Maki,19.3451559,-99.1698111,Avenida Miguel Ángel de Quevedo,,,Mo-Sa 13:30-23:00; Su 13:00-20:00
Happy's Pizza,19.3451395,-99.1696538,Avenida Miguel Ángel de Quevedo,,,
Tamales Flor de Lis,19.3451876,-99.1700930,Avenida Miguel Ángel de Quevedo,,,
La Parrilla de Manolo,20.6333677,-87.0676804,,,,
Sushi Itto,19.3459911,-99.1770334,,,,
Playa Bruja,23.3063198,-106.4905359,,,,
Shrimp factory,23.2422919,-106.4513200,,,,
O'Xacobeo,19.4195529,-99.1609089,Colima,,,Mo-Su 13:00-20:00
Diez,20.6329250,-87.0679529,,,,
Las Delicias,20.6310967,-87.0691166,,,,
Bip-Bip,20.6300454,-87.0698481,,,,
La Vagabunda,20.6318452,-87.0685814,,,,
Ambasciata D' Italia,20.6314515,-87.0689652,,,,
Guy Fieri's,20.6309579,-87.0692180,,,,
Aca Los Tacos,20.6301050,-87.0699314,,,,
Texas Burger Company,20.6307269,-87.0693595,,,,
That's Amore,20.6326405,-87.0680026,,,,
Maktub,20.6327584,-87.0680556,,,,
La Route Des Vins,20.6324322,-87.0682967,,,,
Antica,20.6328828,-87.0679773,,,,
Molusko,20.6328383,-87.0680045,,,,
La Vaca Gaucha,20.6316084,-87.0689053,,,,
Babes,20.6327240,-87.0680789,,,,
1847,20.6327984,-87.0680301,,,,
La 5a Tostada,20.6326929,-87.0681011,,,,
Los Farolitos,25.5668504,-103.3838318,,,,
Doña Juanita y Cia.,20.6269122,-87.0826480,,,,
Merchant,20.6249071,-87.0793301,,,,
Los 3 Bisqueteros,20.6268255,-87.0824935,,,,
China Palace,20.6256173,-87.0805384,,,,
Billy The Kid,20.6252311,-87.0758803,,,,
Lotus,20.6261713,-87.0738184,,,,
Don Mario,20.6263187,-87.0737338,,,,
Las Brisas,20.6246229,-87.0748901,,,,
Torero,20.6255922,-87.0742316,,,,
Hacienda Mi Ranchito,20.6264319,-87.0736156,,,,
La Taberna,20.6247330,-87.0748288,,,,
El Sarape,20.6245402,-87.0784649,,,,
Appetizer,20.6241520,-87.0753655,,,,
Il Bistro,20.6287756,-87.0720225,,,,
Ipanema's,20.6278554,-87.0728600,,,,
La Famiglia,20.6274081,-87.0731109,Av. 10 Norte,,,
Il Panino,20.6276971,-87.0728986,,,,
La Posta,19.3449471,-99.1578549,Avenida Pacífico,,,Mo-We 13:30-23:00;Th-Sa 13:30-24:00;Su 13:30-22:00
The Glass Bar,20.6265454,-87.0720998,,,,
Il Pescatore,20.6292938,-87.0694004,,,,
Diablito Cha Cha Cha,20.6272813,-87.0710881,,,,
L' Ambassade,20.6270336,-87.0726573,,,,
Ula Gula,20.6268087,-87.0722944,,,,
La Barbacoa,20.6272272,-87.0729889,,,,
Java Joe's,20.6268644,-87.0726194,,,,
Era Ora,20.6275228,-87.0708756,,,,
Eclipse,20.6273322,-87.0710148,,,,
Babes,20.6269289,-87.0724903,,,,
Asiana,20.6296307,-87.0690960,,,,
Karta Bar,20.6272035,-87.0709882,,,,
Jaguar,20.6258193,-87.0728487,,,,
Restaurant Da Bruno,20.6275180,-87.0716661,,,,
Casa del Agua,20.6233476,-87.0745718,,,,
Mandarina's Cafe,20.6289021,-87.0706793,,,,
Big Lobster,20.6248954,-87.0734884,,,,
La Frontera,20.6226850,-87.0750204,,,,
Los Rancheros,20.6246297,-87.0736601,,,,
Media Luna,20.6277025,-87.0715410,,,,
Playasia,20.6274649,-87.0717045,,,,
La Caprichoza,20.6283260,-87.0710819,,,,
Tropical,20.6261780,-87.0725827,5ta Avenida,,,
Blue Lobster,20.6274432,-87.0715592,,,,
Pez Vela,20.6233908,-87.0746481,,,,
100% Natural,20.6269835,-87.0720450,,,,
Los Comales,20.6240887,-87.0740580,,,,
Karen's,20.6236893,-87.0744503,,,,
Carlos & Charlie's,20.6216360,-87.0759516,,,,
Di Vino,20.6275679,-87.0717627,,,,
Tequila Barrel,20.6272846,-87.0719628,,,,
Las Bugambilias,20.6290116,-87.0707589,,,,
Mosquito Blue,20.6276748,-87.0716863,,,,
Madre Tierra,20.6285510,-87.0710784,,,,
Kool Fish,20.6358691,-87.0659259,,,,
Casa Adela,20.6256380,-87.0730912,,,,
Sur,20.6281710,-87.0713352,,,,
Fisher's,19.3889034,-99.1767765,,,,
Café Palacio,19.3930072,-99.1732204,,,,
,19.3911716,-99.1768701,,,,
Pizza Hut,19.3786986,-99.1480685,Eje Central,,,
Wings,19.3757354,-99.1409670,Calzada de Tlalpan,,,
Tacos Salceados,32.5067302,-116.9737531,,,,
"Mariscos ""El Mazateño""",32.5282790,-116.9922634,,,,
san matias,31.3345380,-115.5464135,,,,
Costeñito,25.6544064,-100.2937682,,,,
Wings Army,25.6547159,-100.2935542,,,,
Manhattan,25.6477137,-100.2843590,,,,
IHOP,25.6383269,-100.2869447,,,,
Chili's,25.6355606,-100.2828355,,,,
Sirloin Stockade,25.6349287,-100.2838745,,,,
Benedetis Pizza,19.4084563,-99.1616211,,,,
Como Como,20.6361975,-87.0656503,,,,
La Portena,20.6357156,-87.0662082,,,,
El Emporio,20.6358417,-87.0664007,,,,
Esquina 38,20.6355449,-87.0659448,,,,
La Pirata,20.6367799,-87.0656396,,,,
La Piola,20.6352437,-87.0655430,,,,
La Pumarola,20.6352336,-87.0631505,,,,
Vips,19.3512730,-99.1864650,,,,
Hooters,19.3499518,-99.1864371,,,,
Sushi Roll,19.3885973,-99.1742263,,,,
Emilia,20.6519505,-100.4337372,,,,
Frankfurt,19.4094062,-99.1755542,Avenida Tamaulipas,,,
Specia,19.4106504,-99.1678157,Amsterdam,,,
Restaurante Tokio,19.8460143,-90.5375742,,,,
El Bastión,19.8458945,-90.5374801,,,,
Sanborn's,24.0249258,-104.6697379,,,,
El Almendro,20.6245254,-87.0747794,,,,
Buenos Aires,20.6255130,-87.0741008,,,,
Dolcetto,20.6272911,-87.0712824,,,,
Ajua,20.6244017,-87.0745659,,,,
Coffe Press,20.6229835,-87.0741115,,,,
Negrosal,20.6288243,-87.0699293,,,,
Las Cazuelas,20.6322620,-87.0690565,,,,
Club Nautico Tarraya,20.6228414,-87.0736630,Orilla de Playa,+529848732040,,
Carboncitos,20.6242659,-87.0741561,Calle 4 Norte,,,
Chicago,20.6253234,-87.0740612,,,,
La Quinta Pasion,20.6321534,-87.0687058,,,,
Le Petit Paris,20.6223754,-87.0749970,,,,
Fusion Beach Bar Cuisine,20.6244652,-87.0724184,Calle 6 Norte,,,Mo-Su 08:00-24:00
Los Rancheros,20.6214136,-87.0758251,,,,
Pummarola Express,20.6316976,-87.0692576,,,,
Yanten,20.6235898,-87.0730572,,,,
La Gloria Mexicana,20.6223047,-87.0748756,,,,
1900,19.2891358,-99.1668560,,,,
Italiannis,19.4113450,-99.1551510,,,,
Sanborns,21.8811134,-102.2954767,,,,
Molino Viejo,30.4845797,-115.9768961,,,,
Vips,19.3300400,-99.2115560,,,,
IHOP,19.3944515,-99.1729552,Montecitos,,,Su-Th 07:00-23:00;Fr-Sa 07:00-00:00
Potzolcalli,19.4123270,-99.1548500,,,,
Bismark Restaurante,24.1568093,-110.3118243,,,,
El Zarape Restaurante Tipico,24.1355843,-110.3151502,,,,
El Patron,24.1560073,-110.3247141,,,,
Kiwi,24.1644038,-110.3153274,,,,
Los Magueyes,24.1539447,-110.3164297,,,,
Sushi One,24.1642937,-110.3147133,Paseo Alvaro Obregon,,,
Mariscos Dos Mares,24.1678598,-110.3103787,,,,
KYUU Sushi,24.1562943,-110.3210230,,,,"Mo, Tu, Th, Su 13:00-22:00; Fr, Sa 13:00-23:00"
Tamales Purepechas,20.9712436,-101.2861535,,,,
Alitas y Costillas,25.4595984,-100.9827713,,,,
Real de la Esperanza,21.0485883,-101.2574370,,,,
Antojitos Los Gallos,15.7678476,-96.1379950,,,,
Quinta Las Acacias,21.0028604,-101.2416154,,,,
Restaurante del Hotel Perla,24.1623800,-110.3176584,,,,
,24.1624314,-110.3172561,,,,
Delis,24.1622160,-110.3172346,,,,
El Quinto Sol,24.1624020,-110.3147402,,,,
La muralla china,24.1626264,-110.3161134,,,,
Rancho Viejo,24.1631386,-110.3168752,,,,
Rancho Viejo,24.1542134,-110.3227810,,,,
Charro de Oro Buffet,25.6476491,-100.3021787,,,,
La hacienda de Guadalajara,24.1551449,-110.3226497,,,,
La parrilla norteña,24.1473156,-110.3298219,,,,
Sushi Zone,24.1445762,-110.3320119,,,,
Taquería El Huequito,19.3818830,-99.1796333,,,,Mo-Su 09:00-04:00
Grillos,19.2827802,-98.4369206,,,,
La Vaca Negra,19.2894841,-98.4239602,,,,
Mi Viejo Café,19.2833625,-98.4369260,,,,
La Casa de las Tlayudas,15.7654088,-96.1391633,,,,
Taurus,18.9709155,-96.7238218,,,,
Tacos el Güero,20.5968475,-100.3600417,,,,
Papa Bill,21.1547547,-86.8381425,,,,
Sushi Akai,21.1541543,-86.8383678,,,,
Sushi Ken,21.1519228,-86.8483450,,,,
Italiannis,21.1515407,-86.8482054,Avenida Andrés Quintana Roo,+52 998 848 2678,,
Parrilla Argentina,18.9359618,-99.2000032,Diana,,,
terrarium,18.9429284,-99.2092831,,,,
guamuchil,18.9429284,-99.2097337,,,,
Ana y José Beach Club,20.1655821,-87.4519904,,,,
Taqueria El Pastor,25.4438076,-100.9907537,,,,
Teriyaki Daruma,32.5257781,-117.0008312,,,,
Vips Axomiatla,19.3416329,-99.2486666,,,,
La Buena Vida,20.4024709,-87.3094134,,,,
La Lunita,20.4069615,-87.3076024,,,,08:00-23:00
Que Onda! Hotel & Restaurante,20.4090466,-87.3042764,,,,
Mamitas Beach Club,20.6312545,-87.0650067,,,,
Wicky's Beach Club,20.6258581,-87.0710143,,,,
Abuelo Gerardo,20.5098632,-86.9478249,,,,
El Porton,17.9951169,-92.9418732,,,,
La casa de los almuerzos,19.3243280,-98.2321525,,,,
Vips,19.5064987,-99.1460935,,,,
SUMA,19.3250732,-98.2325017,,,,
Restaurant Villa Dante,19.3671995,-99.2794920,,,,
Toks,19.3571738,-99.1989476,,,,
El Tizoncito,19.3596970,-99.1978402,,,,
Toks,19.3633156,-99.1894275,,,,
,25.4342061,-100.9994919,,,,
Cherokee House,25.4504341,-100.9882218,,,,
Pour La France,25.4411481,-100.9769619,,,,
Parrilla Steak,20.6862917,-103.4199926,,,,
Vips,24.0350063,-104.6523830,Boulevard Felipe Pescador,,,
Toks,19.3641845,-99.1608448,"Yácatas,Sta.Cruz Atoyac",,,
Los Cántaros,25.4406879,-100.9928029,,,,
M&M Pizza,25.4466025,-100.9893697,,,,
Super Salads,25.4470482,-100.9883935,,,,
La Tavola,19.3921348,-99.1708091,Torres Adalid,,,
Casa de Pepe,19.3697982,-99.1805126,Avenida Insurgentes Sur,,,
Sushi Roll,19.3893152,-99.1736888,,,,
Ruben's Hamburgers Insurgentes,19.3887302,-99.1738819,Insurgentes Sur,,,
Yandros,19.3150173,-98.2381518,,,,
,19.3156022,-98.2376354,,,,
Sanborns,18.9353464,-99.2294753,,,,
parrilla Argentina,25.6455841,-100.2939444,,,,
Tacos el Morelense,25.6460194,-100.2941904,,,,
Bonkey Sushi,25.6461935,-100.2941582,,,,
Tacos Que Pachó,25.6422570,-100.2908323,,,,
Tacos del Güero,25.6422376,-100.2777002,,,,
Sushi Express,25.6408835,-100.2816484,,,,
Mariscos Los Arcos,25.6353702,-100.2840517,,,,
Toks,25.6364825,-100.2833865,,,,
Sol y Luna,25.4367034,-100.9940931,,,,
El Feligrez,25.4572927,-100.9847511,,,,
Deigo,19.3779779,-99.1615348,José Enrique Pestalozzi,,,Tu-Sa 13:00-22:00;Su 13:00-19:00
El Rincón del Parque,19.3796051,-99.1619776,Matías Romero,,,Mo-Sa 08:00-22:00; Su 8:30-20:00
Pizzas Plaza Coyoacán,19.3448754,-99.1638672,Miguel Ángel de Quevedo,,,
El Tizoncito,19.3507565,-99.1625109,Calle Aguayo,,,
Giornale,19.4282253,-99.2171471,Avenida Paseo de las Palmas,,,
La Garufa,25.4962569,-100.9650210,,,,
Galpao do Brasil,25.4843845,-100.9710614,,,,
Don Artemio,25.4948830,-100.9655999,,,,
Tacos El Pastor,25.4239063,-101.0015955,,,,
La Forchetta,25.4209509,-101.0017536,,,,
El Tapanco,25.4207571,-101.0015363,,,,
Los Compadres,25.4202943,-100.9974808,,,,
,25.4242091,-101.0022256,,,,
,25.4193712,-100.9987360,,,,
Garabatos Insurgentes,19.3948726,-99.1724681,Insurgentes Sur,,,
Hooters,19.3891063,-99.1737469,,,,
Mirador Maya,18.5084953,-89.4029831,,,,
Mision 19,32.5211237,-117.0078146,,,,
Las Brasas,32.6366113,-115.3856599,,,,
,20.6256795,-87.0766258,,,,
"Area de comidas, Mercado San Juan de Aragón sec. 2",19.4537883,-99.0854076,,,,
Merendero San Marcos,21.8788414,-102.3044459,,,,
Bacanora Prime,21.8764937,-102.3038773,,,,
"TACOS DE MARISCOS ""LOS JARDINES""",31.8600362,-116.6182907,LOPEZ MATEOS Y PRIMERA,,,
Ocho Tostadas Nuevo Vallarta,20.6884431,-105.2898629,,,,
Fonda Orizatlan,22.1471450,-100.9745640,,,,
La Mera Madre,19.1161305,-96.1039165,Blvd. Manuel Avila Camacho,,,
Los Bisquets de Obregón,19.5819957,-99.0221056,,,,
,19.5913312,-99.0139931,,,,
Mary,19.5873488,-99.0147066,,,,
Sanborns,19.5827051,-99.0237643,,,,
Chili's,19.5843072,-99.0235980,,,,
Vips,19.5806733,-99.0237858,,,,
El Portón,19.5808603,-99.0236892,,,,
Applebee's,25.7321665,-100.3964550,,,,
Timón,19.3443004,-90.7320350,,,,
Fresas,19.3393626,-99.3108627,,,,
,19.3338603,-99.3100762,,,,
,19.3121585,-99.3107736,,,,
,19.3117434,-99.3115192,,,,
El lingote,25.6760963,-100.2824472,,,,
La Galería Café,25.6663565,-100.3075146,,,,
Tenerias,25.6705029,-100.3059950,,,,
Neuquen,25.6697730,-100.3083402,Dr. Jose María Coss,,,
El Papalote,25.6564807,-100.3616938,Calle Río Manzanares,,,
La Barra de Sontecomapan,18.5577719,-94.9942606,,,,
La Marina,31.7343946,-116.6382379,,,,
La Parrilla Suiza,18.1559781,-94.4199032,,,,
Neguri,18.1558621,-94.4207175,,,,
Rycka,18.1558057,-94.4210540,,,,
La Barra de Alvarado,18.1562408,-94.4183187,,,,
El Pastor Suizo,18.1536017,-94.4340704,,,,
Toks,18.1488971,-94.4690589,,,,
Martin's,25.5376777,-103.4495957,,,,
Tacos y Pozole el Chino,25.5390233,-103.4538765,,,,
La Garufa (comida argentina),25.5419913,-103.4479523,,,,
Cocteleria Fiesta,25.5388646,-103.4538692,,,,
Restaurant Principal,25.5401763,-103.4523994,,,,
Fondakatessen,25.5376245,-103.4553302,,,,
La Alhambra,25.5613978,-103.4317804,,,,
OXXO,31.8741446,-116.6091364,,,,
Chili's,25.4568074,-100.9749160,,,,
Maro's Shrimp House,22.8831213,-109.9139827,,,,
Crazy Lobster,22.8819428,-109.9136467,,,,
El Principal,25.4654209,-100.9810701,,,,
,25.4686077,-100.9796056,,,,
Los Pioneros,25.4723126,-100.9768108,,,,
Las Brazas,25.4680943,-100.9706739,,,,
Las Alitas,25.4388456,-100.9937223,,,,
Restaurant La Malinche,25.4232871,-101.0000110,,,,
Vips,32.6563931,-115.4146100,,,,
Toks Plaza Sendero Toluca,19.2907609,-99.5561956,,,,
Madre Oaxaca,25.6650012,-100.3089142,,,,
El Papalote,25.6692930,-100.3398985,,,,
Il Castello,25.7877863,-100.1388016,,,,
El Papalote,25.7866151,-100.1365416,,,,
Cabo Grill,25.6484527,-100.3597340,,,,
Super Salads,25.7258421,-100.2161188,,,,
Applebee's,25.7258034,-100.2158390,,,,
El Jacal,18.1491266,-94.4723002,,,,
Anthony's Restaurant,23.2421815,-106.4517138,,,,
Sierra Madre Brewing Co,25.6669080,-100.3110266,,,,
Vida Mia,21.0306582,-89.6442750,51 x 46,,,
La Iguana,21.0306774,-89.6443557,,,,
Pez y Mar,21.0310006,-89.6442629,,,,
Tio Ranito,21.0318241,-89.6463986,Calle 50,,,
Vips,19.1392023,-96.1040401,,,,
Sanborns,19.1396231,-96.1043219,,,,
El Portón,19.1410280,-96.1157192,,,,
Pizza Internet,19.2009938,-104.6838624,Av. veracruz,,,
Daddy's Restaurante,23.7319297,-99.1452332,Avenida Cristóbal Colón,,,
El Portón,19.6988116,-98.9807448,,,,Mo-Su 07:00-23:00
Vips,25.6931802,-100.2406970,,,,
El Portón,25.6928914,-100.2417408,,,,
Vips,19.4198680,-99.0951989,,,,
Gino's Guadalupe Inn,19.3579591,-99.1843196,Avenida Insurgentes Sur,,,
,24.4954270,-100.2952421,,,,
Pepe Pollos,18.9013739,-96.9565199,,,,
Vips,19.6607680,-99.0040505,,,,
El Gallito,19.4032812,-99.1691022,,,,
Pane en Via,19.4051544,-99.1692072,,,,
Séptimo,19.3474414,-99.1634640,Calle Presidente Venustiano Carranza,,,
Sanborns,25.6492658,-100.3353246,,,,
Fonda San Angel,19.3449431,-99.1916174,Plaza de Sn. Jacinto,,,
Mariscos Mante II,22.7421167,-98.9742487,,,,
Vips,19.4840413,-99.2334741,,,,
,16.8219768,-90.8872541,,,,
,20.2725435,-97.9638675,,,,
,20.5020538,-87.2242356,,,,
El Charco de las Ranas,19.3707670,-99.1856271,,,,
Café Papalotl,19.3363609,-99.1835747,,,,Mo-Fr 8:00-19:00; Sa 9:00-17:00
Trattoria Urbana,19.3370578,-99.1834288,,,,
Allende,19.3369814,-99.1831902,Avenida Copilco,,,
El Morral,19.3504246,-99.1617503,,,,
Kam Ling,19.3495493,-99.1609200,,,,
Asadero Grill,28.6982905,-100.5265789,,,,
"Carnitas ""Uruapan""",28.7016529,-100.5346331,,,,
Rancho Steak,28.7001429,-100.5352022,,,,
Argovia,15.1249759,-92.2988947,,,,
El Sheik,19.3566113,-99.1684555,Calle Madrid,,,
Sushi-itto Coyoacán,19.3562913,-99.1685637,Avenida México,,,Mo-Th 13:00-23:00;Fr-Sa 13:00-00:00;Su 13:00-22:00
Sanborn's,19.4250526,-99.1651995,,,,
Toks,19.3888254,-99.0408655,,,,
El Colonial,20.7610271,-86.9632726,,,,
El Mercado,20.7612549,-86.9626755,,,,
El Puerto,20.7578601,-86.9591398,,,,
El Rodizio,20.7611200,-86.9634612,,,,
La Dorada,20.7615600,-86.9631079,,,,
La Hacienda,20.7614866,-86.9629864,,,,
La Plaza,20.7608481,-86.9629956,,,,
El Faro,20.7589615,-86.9583588,,,,
El Hashiru,20.7606093,-86.9637212,,,,
,20.7577763,-86.9582930,,,,
,20.6582956,-103.4161417,,,,
Nativo,20.6332160,-87.0743108,,,,
Vips,20.6199897,-87.0908203,,,,
El Chacuaco,19.3598016,-98.1521950,,,,
el huachinango feliz,17.5094251,-91.9884309,,,,
Vips,25.6393308,-100.3161450,,,,
El Tirol,19.3154709,-98.2384887,,,,
La Coronela,18.1496819,-94.4725094,,,,
Toks,19.5201366,-96.8827432,,,,
Postodoro,19.5329393,-96.9351022,,,,
Del Tingo Al Tango,19.5393399,-96.9283591,,,,
El Vaquero,19.1039169,-104.3323128,,,,
La Estancia de los Tecajetes,19.5310035,-96.9314287,,,,
Café de la Parroquia,19.5273240,-96.9236059,,,,
Estrella del mar,24.1552591,-110.3234630,,,,
Rancho Viejo Mariscos,24.1551392,-110.3221335,,,,
Ciao Molino,24.1544417,-110.3250464,,,,
Sierra Madre Brewing Co.,25.7671900,-100.3016817,,,,
La Mansión,19.5319950,-96.9327334,,,,
El Meson de Chucho El Roto,20.5926855,-100.3894137,,,,
,19.2923060,-99.1202092,,,,
Julius Pizza / Telcoda NG,19.3364155,-99.1368081,,,,
Gelee,19.3736926,-99.1606679,,,,
PAKAL TSIX A,15.0931025,-92.1809752,,,,
"Pozoleria ""La Troje""",19.3997047,-99.1248161,Plan de Ayala 327,,,
Pizza Hut,19.5257174,-96.8969907,,,,
Salto de Xala,19.5207434,-96.9059454,,,,
,19.5207850,-96.9181921,,,,
Loncheria,25.5350019,-103.2548280,,,,
Postodoro,19.5272144,-96.9205861,,,,
Tango,20.2981058,-103.2626788,,,,
Café chiquito,19.5255556,-96.9205942,,,,
El Itacate,19.5289334,-96.9185138,,,,
La Pérgola,19.5194219,-96.9177694,,,,
Vips,19.5274799,-96.9202559,,,,
Vips,28.6328546,-106.1205428,,,,
Vips,25.5588067,-103.4338305,,,,
Casino Español,19.5274855,-96.9200482,,,,
Pizza Hut,19.5392800,-96.9276339,,,,
La forja,19.5217791,-96.9086129,,,,
Villarica,19.5217197,-96.9080161,,,,
Buffet Chino,19.5391422,-96.9247565,,,,
Tomas,20.2974634,-103.1912219,,,,
Tony's,20.2969745,-103.2404672,,,,
Buffet Aungus Beff,32.5650619,-116.6505134,,,,
Pizza Hut,21.0173861,-89.5844738,,,,
Toks,21.0206961,-89.5777415,,,,
Piattino,21.0199950,-89.5782404,,,,
Drive Inn,21.0099447,-89.5858954,,,,
,32.4735447,-116.9183484,,,,
Comida China,32.5008566,-116.8866886,,,,
Pollo Feliz Estadio,16.7606757,-93.0951752,,,,
,20.5529878,-101.2056122,,,,
El Portón,16.7552952,-93.1425321,,,,
Marisqueria la Perla Jarocha,19.0687840,-98.2192198,,,,
Fonda Melva,21.1039010,-104.4343867,,,,
Toks,19.0648200,-98.1790000,,,,
La Peña Universitaria,19.0210896,-98.2418532,,,,
Pipis,20.6123668,-105.2317631,,,,
Oscar's,20.6057707,-105.2374297,,,,
River Cafe,20.6057163,-105.2363577,,,,
Restaurant Las Brazas,25.4491479,-100.9882091,,,,
Vips,19.4720994,-99.1215725,,,,
Bisquets Obregón,19.4719217,-99.1234322,,,,
Pizzas Tomy,19.4720490,-99.1237432,,,,
La Casa del Pavo,19.4326846,-99.1373560,,,,
,19.4733266,-99.1274527,,,,
,19.4768972,-99.1199326,,,,
Apolo,19.4672321,-99.1213005,,,,
El Portón,19.4695170,-99.1161520,,,,
Chili's,19.4696308,-99.1165811,,,,
"Restaurant ""Los Pajaros""",20.6965689,-88.5863293,,,,
McCarthy Iris Push,19.1558005,-96.0983170,,,,
El Parnita,19.4140824,-99.1625995,Avenida Yucatán,,,
Roby's,20.6218555,-103.4227854,Avenida López Mateos Sur,,,Mo 07:30-17:00; We-Su 07:30-17:00
Roby's,20.6237985,-103.4272891,,,,
Tacos Julio,20.6300240,-103.4426152,,,,
La Cabaña,20.6242413,-103.4713522,,,,
Yataki Sushi,20.6384010,-103.4186697,,,,
Benito's Pizza,20.6396109,-103.4177255,,,,
Tortas Valdo's,20.6238478,-103.4212401,,,,
La Gorda,20.6294589,-103.4275624,,,,
Pollo Pepe,20.6314253,-103.4246641,,,,
Bronto Burgers,20.6301623,-103.4236895,Avenida Nicolás Copérnico,,,
Hamburguesería,20.6734478,-103.3657980,,,,
Pizzas Hipster,20.6731725,-103.3650238,,,,
Il Diavolo,20.6736550,-103.3763757,,,,
Sanborns Café,20.6742774,-103.3771053,,,,
Casa Bariachi,20.6742924,-103.3784464,,,,
Fonda Argentina,20.6449896,-103.4091382,,,,
Pete's Pizza,20.6382602,-103.4185018,,,,
Brantony's,20.6389329,-103.4147655,,,,
La Palapa De Galileo,20.6265355,-103.4219198,,,,
Natural VIP,19.3177578,-98.2368256,,,,
Tacos Charly's,20.6471205,-103.4065821,,,,
"Ardente, Pizzas a la leña",20.6311057,-103.4217844,,,,
,16.7584997,-93.1721026,,,,
,20.6291528,-103.4754144,,,,
La Escondida,19.2993506,-99.4084783,,,,Mo-Fr 13:00-19:00; Sa-Su 09:00-19:00
Picrecha,19.5291659,-96.9154528,,,,
Giovanni's Pizza,19.5287811,-96.9158557,,,,
Sumarento,19.5291334,-96.9169432,,,,
,32.4551622,-116.9192043,,,,
Cluny,19.3464043,-99.1893478,De La Paz,,,Mo-Sa 12:30-00:00; Su 12:30-23:00
La galera de don Antonio,19.5119513,-96.9516270,,,,
Las dobladas del tío Memo,19.5126663,-96.9537177,,,,
El Portón,19.6348347,-99.0985659,,,,
Vips,19.6351025,-99.0993760,,,,
EL LIMON PARTIDO,20.6275402,-103.4270179,,,,
,20.6269076,-103.4254327,,,,
Que Rollo,20.6298559,-103.4223600,,,,
Daniel's,20.6238601,-103.4269508,,,,
perla,20.6277699,-103.4268140,,,,
Pizza Hut,20.6281627,-103.4190660,,,,
,20.6281138,-103.4189847,,,,
OLIVO,20.6277532,-103.4267413,,,,
Sirloin Stockade,20.6408411,-103.4090307,,,,
,20.6385444,-103.4194940,,,,
TOKAI,20.6393426,-103.4180402,,,,
Wing's Army,18.6479308,-91.8148958,,,,
Spice,20.8284174,-86.8951290,,,,
Fork,20.8292246,-86.8942707,,,,
Castaways,20.8282020,-86.8948447,,,,
Tamarindo,20.8288085,-86.8949896,,,,
Carnival,20.8283274,-86.8945443,,,,
Capers,20.8286881,-86.8945443,,,,
Zest,20.8288987,-86.8947053,,,,
Pollo Feliz,21.1517953,-101.7297731,,,,
Okuma,20.6881943,-103.4200468,,,,
Applebee's,20.6912636,-103.4155350,,,,
El Tizoncito,19.3165294,-99.1258647,,,,
Mi Piragua,20.7346533,-103.3661822,,,,
,20.7346734,-103.3664397,,,,
El estribo,20.5962002,-100.3593947,,,,
Wings,19.7084861,-99.2057910,,,,
El Ultima Maya,20.4006915,-87.3213500,,,,Mo-Su 12:00-21:30
Bisquets de Obregon,16.7485046,-93.0899241,,,,
Sandys,20.7441397,-103.3861407,,,,
Oyster House by FISM,24.1567939,-110.3200032,Allende,,,We-Mo 13:00-21:00
Restaurant Runwayss,23.7482220,-99.1388186,,,,
La Estacion JC,25.6008213,-100.2648717,,,,
Gorilas,25.6014599,-100.2654242,,,,
Various restaurants,25.6021517,-100.2658722,,,,
CARNES EN SU JUGO ,20.7000624,-103.2906556,,,,
MARISCOS TANILO,20.7001308,-103.2911859,,,,
MARISCOS EL CARNAL,20.7004107,-103.2908312,,,,
Pizza Hut,25.7239811,-100.2151460,,,,
Sushi Bar,31.8696814,-116.6459009,,,,
Doña Tota,20.6032466,-103.4021852,,,,
Martin's,23.7498125,-99.1420732,,,,
Restaurante Boca de Iguanas,19.3073217,-104.8198916,,,,
Roadrunner Resturant and Deli,31.1148039,-114.8991184,,,,
Buckaroo Burgers,31.0965665,-114.8910177,,,,
,31.0967663,-114.8904089,,,,
Mariscos,20.6275047,-103.3698770,,,,
Tropicana,23.0607305,-109.6939012,,,,
Morgan's Encore,23.0627911,-109.6962843,,,,
Morgan's Cellar,23.0611759,-109.6953670,,,,
Zipper's,23.0279777,-109.7152288,,,,
Nick San's,23.0161977,-109.7236133,,,,
Manuel's,23.0164495,-109.7235651,,,,
Habenaro's,23.0536080,-109.6935874,,,,
Don Sanchez Cantina,23.0603901,-109.6938623,,,,
Meson Del Angel,23.0618461,-109.6976601,,,,
Tequila Restaurant,23.0612390,-109.6948871,,,,
Las Guacamayas Taqueria,23.0604010,-109.7056960,,,,
,25.6486317,-100.2965594,,,,
,25.6486171,-100.2956635,,,,
,25.6488470,-100.2900309,,,,
Centrales,25.6515283,-100.2888615,,,,
,25.6507422,-100.3054964,,,,
Tacos Felix,25.6500566,-100.2926344,,,,
Club De Playa Restaurant Bar El Tecolote,24.3364115,-110.3161473,,,,
,24.1631940,-110.3140499,,,,
El Rosaio de Amozoc,19.0438279,-98.0355682,,,,
Restaurant,16.7111387,-92.6183479,,,,
Sushiko,28.6227291,-106.1109584,,,,
Golden Wah,28.6337681,-106.1226601,,,,
Piola,19.3594134,-99.2701885,,,,
Prime House,19.3596026,-99.2699042,Santa Fe,,,
El Quintal,28.6342503,-106.1223140,,,,
Pollo Loco,25.7228692,-100.1896143,,,,
Pizza Hut,25.7242313,-100.1955876,,,,
Cafe des Artistes - Puerto Vallarta,20.6116802,-105.2322349,Guadalupe Sánchez,,,Mo-Su 06:00-23:00
China Bistro,32.6477593,-115.4519053,,,,
Applebee's,32.6467468,-115.4530450,,,,
FInas,32.6471066,-115.4527446,,,,
Pampas Do Brasil,32.6552381,-115.4514060,,,,
El Maestro Asador,19.0398092,-98.1920963,Avenida 3 Oriente,,,
Sirloin Stokade,32.6514318,-115.4714709,,,,
El meson de San Marcos,19.2291167,-97.8046520,,,,
Pecan's,27.1327633,-104.9084926,,,,
Dino's Pizza,27.1304913,-104.9199302,,,,
Real del Sol,27.1275690,-104.9037800,,,,
El Marinero,27.1334269,-104.9141333,,,,
El Cazador,27.1374278,-104.9146379,,,,
Chili's,25.6854830,-100.2679070,,,,
Applebee's,25.6865200,-100.2680390,,,,
Fonda Cari,19.2267378,-97.8030738,,,,
Oasis,18.9872008,-98.4791917,,,,
,19.0589356,-98.2323028,,,,
,19.0586365,-98.2317396,,,,
,19.0591587,-98.2327669,,,,
Pizza/Chicken,25.1901198,-99.8398694,,,,
Antigua Taqueria La Oriental,19.0608298,-98.2172398,,,,
Pizza Angelo,18.4505197,-95.2150443,,,,
Munich,19.0450756,-98.2020560,,,,
Pizza Hut,19.0643078,-98.1764426,,,,
tacos el güero,19.3656261,-99.1757417,,,,
Beijing,32.6596604,-115.4520935,,,,
Vips,19.4329504,-99.1601573,,,,
El Zarzo,20.0178855,-97.5213708,,,,
Cabo Grill,25.6861264,-100.2646641,,,,
Polloyon,25.6863971,-100.2648894,,,,
Super Salads,25.6862956,-100.2652220,,,,
Las Alitas,25.6891043,-100.2576528,,,,
Luna Mexicana,25.6850486,-100.2620996,,,,
Belmondo,19.4197188,-99.1576780,,,,
MOG,19.4186954,-99.1564652,,,,
Sushiko Navojoa,27.0736619,-109.4435810,Calle General Ignacio Pesqueira Sur,+52 642 421 0831,,Tu-Th 13:00-24:00; Fr-Sa 13:00-02:00; Su 12:00-23:00
Sanborns,19.2651633,-99.1145699,,,,
,20.5515581,-99.3115918,,,,
D'Arce,32.5737278,-116.6267735,,,,
La Fogata Suiza,19.4172435,-98.1428444,,,,
La Gran Chaya,20.6985815,-88.5889586,,,,
La Casa del Pan,16.7375027,-92.6334778,Real de Guadelupe,,,09:00-17:00
Las Tinajas,17.5083811,-91.9823686,,,,Mo-Su 07:00-22:30
La Parroquia,19.8452749,-90.5362857,Calle 55 Indepencia,,,24/7
Don Gustavo,19.8454487,-90.5382677,,,,
,20.3290978,-89.6427807,,,,
Dolce Salato,32.5196610,-117.0195857,,,,
Tonny's Pizza,32.5218722,-117.0271381,Avenida Brasil,,,
Sushi,32.5160977,-117.0225228,,,,
Beverly Burguers,32.5217061,-117.0268617,Avenida Brasil,,,
Green Forest,24.7875278,-107.3946841,,,,
Sushi Factory,24.7885921,-107.3950704,,,,
Buffalo Wild Wings,32.3763638,-117.0600180,,,,
Emporio Sushi,24.7942333,-107.4011704,,,,
Wet Wendy's Margarita House,20.5111461,-86.9484421,,,,
Tai Pak,24.8175692,-107.4235099,,,,
El Hijo de la Tostada,25.4216197,-101.0017249,,,,
,25.4427827,-100.9779101,,,,
Los Compadres,25.4462559,-100.9866327,,,,
La Casa de la Arrachera,25.4464400,-100.9871050,,,,
Las Escolleras,25.4465950,-100.9872979,,,,
Bruxx,25.4450013,-100.9849552,,,,
Buffet San Martin,29.0986050,-110.9227430,Enrique Mazon Lopez,,,
El Fogoncito,21.0180596,-89.5845833,,,,
Shogun,21.0260334,-89.5779407,,,,
Boston's,21.0185055,-89.5824003,,,,
Chili's,21.0178142,-89.5844492,,,,
La Palapa,21.0231677,-89.5754638,,,,
Saladplace,24.1502028,-110.3252288,,,,
Mercado 20 de Noviembre,21.0950936,-89.2842657,,,,
Brice,19.0359875,-98.2452827,,,,
Arabian,19.0268641,-98.2308092,,,,
LA CASONA,20.1751247,-98.0508710,,,,
Aranjuez,20.1755927,-98.0522011,,,,
,20.1762073,-98.0490310,,,,
,20.1751549,-98.0503024,,,,
,15.7660801,-96.1377301,,,,
,15.7655745,-96.1392596,,,,
,15.7645404,-96.1378998,,,,
,15.7644578,-96.1382484,,,,
,18.9428144,-99.2110059,,,,
,18.9427586,-99.2110783,,,,
El Secreto,18.9421091,-99.2245644,,,,
Fish & Chips Grill and Hot Wings,18.9550649,-99.2233199,,,,
Océano Dorado,18.8597874,-99.2222532,,,,Tu-Su 11:00-18:00
Meson De Los Leones,19.3555968,-99.1625813,Calle Ignacio Allende,,,
Restaurant Turismo,20.7410616,-103.3800032,,,,
"Taquería ""El Pastorcito""",16.8625874,-99.9094405,,,,
"""La Terraza""",16.8608817,-99.9168207,,,,
Sanborns,16.8493556,-99.9068401,,,,
100% Natural,16.8486985,-99.9065558,,,,
100% Natural,16.8524117,-99.9006629,,,,
Woolworth Restaurante,16.8496766,-99.9069877,,,,
100% Natural,16.8571979,-99.8935216,,,,
California,16.8569823,-99.8943947,,,,
Marina,14.6987294,-92.3922607,,,,
Cenaduria Florencia,24.8237418,-107.4297561,,,,
Corazón contento,19.5222638,-96.9082809,,,,
Pizzería Prima Luce,20.6828413,-103.4456349,,,,
,25.8245785,-108.9652612,,,,
,25.8016497,-108.9411428,,,,
Cana-Nah Uxmal,20.3983356,-89.7681715,,,,
Restaurante Halach Huinic,20.4050981,-89.7623889,Carretera Chencollí-Umán,,,
Restaurant García,25.6942074,-100.1752846,,,,
Mi Ranchito,18.6088822,-90.7458893,,,,
Hamburguesas Danny Boy,32.5656383,-116.6447311,,,,
Flap's,17.6065631,-101.4643246,,,,
Villa Pizza,17.6065646,-101.4644011,,,,
Hacienda Alfresco,24.8093400,-107.3910248,,,,
Sushi Emporio Malecón,24.8145209,-107.3887020,,,,
Casa Bell,19.4250080,-99.1697350,Calle Praga,,,
"Cocina Economica ÷,+x-$",27.1261116,-104.9159182,,,,
,22.9971487,-99.7118814,,,,
,22.9901402,-99.7321851,,,,
,22.9956513,-99.7110654,,,,
Hooters,19.4276601,-99.1709270,,,,
Taqueria Los Bigotes de Don Pancho Reatas,19.6765339,-101.1887934,,,,
Tabetai Sushi,24.8593410,-99.5690860,,,,
El Caprichito,24.8094027,-107.3921536,,,,
Sirloin Stockade,21.8595042,-102.2835252,,,,
Tomatillos,25.6396340,-100.2854690,,,,
El Barco,25.6415705,-100.2865482,,,,
Tacos Rafa,25.6589620,-100.2963220,,,,
Pecos Bill,25.6902160,-100.2521050,,,,
Pollo Loco,25.6468705,-100.2898832,,,,
Qué Sazon,14.9009902,-92.2669209,,,,
Restaurante Veranda,14.9004573,-92.2669273,,,,
El Pariente,25.2330449,-99.9442147,,,,
El Gran Pariente,25.2332548,-99.9444070,,,,
,17.7423074,-97.8181440,,,,
Pollos Piolo,24.8578790,-99.5685530,,,,
El Rinconcito,24.8582750,-99.5680950,,,,
Pollos Rocha,25.4604661,-108.0752957,,,,
La Playa Azul,24.0323494,-104.6395295,,,,
El Español,24.0399806,-104.6309191,,,,
TGI Friday's,21.0235421,-89.6219848,,,,
Lapa Lapa,21.0278567,-89.6250194,,,,
Boston's,21.0272760,-89.6245178,,,,
Bluefish,21.0302779,-89.6353408,,,,
Los Trompos (Fco. Montejo),21.0305914,-89.6416488,,,,
,23.9693131,-104.7129520,,,,
Pizza Manía,25.6873800,-100.1891120,,,,
El Regio,25.7474237,-100.3004138,,,,
Golden China,24.8201008,-107.3782039,,,,
Pizza Hut,25.6886763,-100.2574040,,,,
Tacos Santiago,25.6396450,-100.2846850,,,,
Restaurante Jardín de los Milagros,21.0270871,-101.2594906,Alhóndiga,,,"Mo,We-Sa 13:30-22:00; Su 13:30-18:00"
Splash,32.1806897,-116.9100517,,,,
Tacos La Carreta,24.8564420,-99.5688030,,,,
Koto Sushi Bar,25.6872090,-100.2677590,,,,
Ponte Xux,21.0412433,-89.6285492,,,,
Kondesa Resturante,20.5067921,-86.9525363,,,,
Guido's,20.5137490,-86.9473086,,,,
CULICHIS,24.8049673,-107.3911697,,,,
Galpao do Brasil,24.0402273,-104.6317857,,,,
Kiromi Sushi Jardines,24.0410651,-104.6316731,Francisco Villa,,,
,24.0448226,-104.6234440,,,,
La cabaña,24.0446291,-104.6230685,,,,
Chai,19.6983004,-101.1751398,,,,
Casa Martina,24.8093790,-107.4010831,,,,
La Casa del Maiz,25.6656852,-100.3080559,,,,
Billygan's,22.8869894,-109.9050939,,,,
The Office,22.8870479,-109.9049550,,,,
Medano Beach Club,22.8882581,-109.9038248,,,,
Tabasco Beach,22.8905285,-109.9009505,,,,
Cilantro's,22.8892586,-109.9030127,,,,
Baja Cantina,22.8865964,-109.9054830,,,,
Nikki Beach,22.8886602,-109.9037755,,,,
Ruth's Chris,22.8866183,-109.9096087,,,,
Tapango,22.8859427,-109.9110531,,,,
Gardenia's,22.8894716,-109.9082535,,,,
Peacock's,22.8891655,-109.9060720,,,,
Alexander,22.8859747,-109.9109629,,,,
Rollo Sushi,22.8894698,-109.9078102,,,,
Jardin de Ninos,22.8892438,-109.9073700,,,,
La Galeria,22.8860057,-109.9108799,,,,
Jack's Bar & Grill,22.8855536,-109.9088661,,,,
,22.8870387,-109.9055294,,,,
Pocho's Seafood,22.8860548,-109.9107553,,,,
El Guero,22.8891321,-109.9049583,,,,
Olé Olé Bar & Grill,22.8860795,-109.9106811,,,,
Figaro,22.8871641,-109.9056233,,,,
Los Deseos,22.8850028,-109.9087195,,,,
Lorenzillo's Oyster Bar,22.8854812,-109.9113306,,,,
Edith's,22.8874984,-109.9058044,,,,
Senor Sweets,22.8864651,-109.9098749,,,,
La Ricazon,22.8866239,-109.9114316,,,,
Presto,22.8848902,-109.9086730,,,,
Raffaele,22.8901854,-109.9082686,,,,
Bikers,22.8865057,-109.9097528,,,,
Hard Rock Cafe,22.8865210,-109.9114990,,,,
Imomo Sushi House,22.8848201,-109.9086434,,,,
Marty's La Ricazon,22.8909816,-109.9061282,,,,
Claro Fish Jr.,22.8879139,-109.9111989,,,,
Bar Esquina,22.8882759,-109.9057421,,,,
Arre Maya,22.8894911,-109.9101836,,,,
Sharky's,22.8881049,-109.9060362,,,,
Pepe's Taco,22.8893534,-109.9102899,,,,
Taqueria los Paises I,22.8907300,-109.9122892,,,,
Sushi Club,22.8929266,-109.9155381,,,,
Corazón de Alcachofa,22.8888496,-109.9058801,,,,
El Pollo de Oro,22.8892099,-109.9124810,,,,
Las Guacamayes,22.8935725,-109.9155171,,,,
Desperados,22.8875379,-109.9117446,,,,
Marisco's Las Tres Islas,22.8906482,-109.9115295,,,,
Las Ajos,22.8888306,-109.9106548,,,,
Maria Jiménez,22.8904415,-109.9113013,,,,
Las Delicias Del Mar,22.8926147,-109.9085339,,,,
La Golandrina,22.8916920,-109.9067884,,,,
El Burro Loco,22.8940121,-109.9148097,,,,
Chicken Hut,22.8912199,-109.9068802,,,,
"Taqueria ""La Paisa""",22.8936437,-109.9146248,,,,
Marisco's Mazatlan,22.8900093,-109.9108446,,,,
La Mexicana,22.8908919,-109.9140629,,,,
Taco Fiesta,22.8855288,-109.9127623,,,,
Baja Peppers,22.8842322,-109.9135461,,,,
Bajo La Luna,22.8834067,-109.9133827,,,,
The Crazy Lobster,22.8818751,-109.9135641,,,,
Lolita's Restaurante,22.8857572,-109.9146054,,,,
Baja Cantina,22.8818554,-109.9106876,,,,
Madeira Bistro,22.8830304,-109.9131241,,,,
Salvatore's,22.8822347,-109.9127632,,,,
El Rinconcito de Licha,22.8856077,-109.9128639,,,,
Griceldas Smokehouse,22.8816456,-109.9109130,,,,
Los Barrils,22.8821715,-109.9138216,,,,
El Venado,22.8874087,-109.9119827,,,,
La Palapa,22.8873249,-109.9121449,,,,
The Sleepless Lobster,22.8869972,-109.9122229,,,,
Mariscos Mocambo,22.8892045,-109.9115621,,,,
El Pescador,22.8871489,-109.9123496,,,,
Faraway,22.8870547,-109.9126409,,,,
Restaurant Pati's & Lobster Garden,22.8866892,-109.9127452,,,,
Restaurante Mi Casa,22.8826443,-109.9148780,,,,
Romeo & Julieta,22.8802218,-109.9131558,,,,
Hacienda El Coyote,22.8804553,-109.9134396,,,,
Baja Brewing Company,22.8871847,-109.9061696,,,,
Puerto San Lucas,22.8779684,-109.9086993,,,,
La Pampa,22.8806466,-109.9131207,,,,
"Tostadas ""Conchita""",19.4703422,-103.3069798,,,,
Comida Rosa,15.6627647,-96.5127681,,,,
Toki,24.8240738,-107.3996724,,,,
,19.4100264,-99.1835532,,,,
,17.6378648,-101.5586264,,,,
,17.6389779,-101.5562919,,,,
,17.6384680,-101.5566469,,,,
Valeria II,17.6385140,-101.5564109,,,,
,17.6385314,-101.5587061,,,,
,17.6377370,-101.5588088,,,,
,17.6384271,-101.5568454,,,,
,17.6379333,-101.5583896,,,,
Daniel's by the sea,17.6383198,-101.5573336,,,,
El Mare,15.6643754,-96.5187415,Calle Mangle & Av. Pellicanos,,,Mo-Sa 17:00-22:00
,19.4774789,-103.3023005,,,,
Taquitos Tuxpeños,19.5566611,-103.3838747,,,,
Taquitos Tuxpeños,19.5548034,-103.3853526,,,,
Pacha Mama,15.6643470,-96.5183282,Calle Mangle,,,Fr-We 18:00-23:00; Th off
Babel,15.6643574,-96.5185052,Calle Mangle,,,
,19.4689721,-103.3052341,,,,
,19.4692807,-103.3050115,,,,
Toks,19.4232577,-102.0376090,,,,
Falafelito,19.4101479,-99.1703758,,,,
Cafebrería El Péndulo,19.4105440,-99.1729781,Nuevo León,,,
Odün,19.4116381,-99.1759218,,,,
Marcelino Pan&Vino,19.4125013,-99.1735370,,,,
La Buena Tierra,19.4116880,-99.1749546,,,,
Sep's,19.4116880,-99.1740104,Michoacán,,,
Asaderos Grill,19.4113384,-99.1754832,,,,
El Ocho,19.4101803,-99.1699683,,,,
Karma Bagels,19.4112048,-99.1722911,,,,
Moshi Moshi,19.4113832,-99.1732420,,,,
Restaurante Bar Nuevo León,19.4116437,-99.1724950,,,,
Creperie de la Paix,19.4116721,-99.1757874,,,,
Quebracho,19.4118739,-99.1751409,,,,
Buffalucas,19.4127100,-99.1744087,,,,
Restaurante Ki-K,19.4128517,-99.1746689,Calle Fernando Montes de Oca,,,
La Vineria,19.4130237,-99.1750337,,,,
Café la Gloria,19.4117553,-99.1755187,,,,
Grapelli,19.4116205,-99.1766259,,,,
,19.4106204,-99.1676360,,,,
Trattoria La Tanna,19.4116126,-99.1769332,,,,
La Morena,19.4116898,-99.1748169,,,,
Garufa,19.4116873,-99.1747043,,,,
,19.4120522,-99.1726450,,,,
Bonito (Barragán design),19.4114122,-99.1721783,,,,
Xel Ha,19.4116911,-99.1744910,,,,
,19.4109600,-99.1687625,,,,
Mi Cantina,19.4105324,-99.1661353,,,,
,19.4109473,-99.1687263,,,,
,19.4108897,-99.1685556,,,,
,19.4108183,-99.1682877,,,,
Restaurante Nonna,19.4107597,-99.1681624,,,,
La Barra,19.4116847,-99.1735958,,,,
,19.4170009,-99.1592668,,,,
El Diez,19.4179925,-99.1598247,,,,
Sobrino's,19.4180785,-99.1595404,,,,
La Bella Italia,19.4179445,-99.1595028,,,,
Sirloin Stockade,20.5867686,-103.4463640,Avenida Adolfo López Mateos Sur,,,Mo-Th 12:30-22:30; Fr-Su 12:30-22:00
San Luisito,25.6713228,-100.3065444,,,,
Tacos Jhonny,24.8061749,-107.4499583,,,,
Toks,21.8589007,-102.2947400,,,,
Los Trompos (city center),21.0382692,-89.6024540,,,,
T.G.I Friday's (City Center),21.0367497,-89.6028133,,,,
Sanborns Peralvillo,19.4620875,-99.1271536,Calzada de Los Misterios,,,
Bisquets de obregon y pizza hut,19.5354091,-99.2316201,,,,
Comedor Chila,22.2290281,-97.8323943,,,,
Viva Zapata,21.5236145,-87.3796652,Avienda Damero,,,
La Sirenita,21.5222346,-87.3789866,Calle Esmedregal,,,
Pizzeria Edeleyn,21.5238565,-87.3783699,Calle Palomino,,,
Sanborns,21.9235141,-102.2901231,,,,
Los Pelicanos,21.5235328,-87.3781397,,,,
Las Raices,21.5275848,-87.3758608,Avienda Damero,,,11:00-23:00
Restaurant Zarabanda,21.5234031,-87.3778125,,,,
Los Peleones,21.5234278,-87.3792354,Calle Tiburon Ballena,,,
Pura Vida Sushi & roots bar,21.5235738,-87.3793722,Calle Tiburon Ballena,,,
100 Montaditos,19.4127221,-99.1670360,,,,
Cafebrería El Péndulo,19.4182064,-99.1588821,Álvaro Obregón,,,
Delirio,19.4172350,-99.1639407,,,,
Vips,19.4243685,-99.1539790,,,,
Taco Game,19.4057399,-99.1771748,Avenida Benjamín Franklin,,,
Pizza Amore,19.4155756,-99.1695627,,,,
Alma de Quetzal,19.4250439,-99.1549017,,,,
Lucille,19.4189906,-99.1600784,,,,
El Portón,19.4246366,-99.1539737,,,,
Especias,19.4713528,-99.0988637,,,,
El Mesón del Abuelo,19.4652286,-99.1806655,,,,
Marcopolo,19.4652664,-99.1811997,,,,
Salamandra,19.4651019,-99.1816344,,,,
Antojitos de Carranza,21.8804995,-102.3013509,,,,
Applebee's,19.2541822,-99.6197992,,,,
Wing's Army,19.2539264,-99.6200862,,,,
P.F. Chang's,19.2578233,-99.6200592,,,,
California Pizza Kitchen,19.2582741,-99.6211724,,,,
Texas Ribs,19.2586894,-99.6212180,,,,
Italianni's,19.2589475,-99.6211830,,,,
Sirloin Stockade,19.2577778,-99.6208291,,,,
Sushi Roll,19.2618798,-99.6205985,,,,
100% Natural,19.2613748,-99.6139981,,,,
Nortesur,19.2843948,-99.6093364,,,,
La Fondue,19.3486663,-99.1629788,,,,
Mariscos Nayarit,20.5031954,-103.2795854,,,,
,19.2812913,-104.7881034,,,,
Martin's,19.2800769,-104.7884266,,,,
,19.2846745,-104.7887377,,,,
,19.2844416,-104.7886894,,,,
,19.2818585,-104.7884665,,,,
,19.2818162,-104.7878231,,,,
,19.2825099,-104.7883783,,,,
Bahai Azul,19.2832390,-104.7883407,,,,
,19.2821997,-104.7881330,,,,
,19.2627151,-99.6212661,,,,
,19.2625328,-99.6210623,,,,
,19.2615402,-99.6213466,,,,
,19.2643204,-99.6231329,,,,
Sushi Itto,19.2614339,-99.6237177,,,,
,19.2872438,-99.6183854,,,,
La Destilería,19.2871602,-99.6197238,,,,
,19.2872590,-99.6186858,,,,
Bisquets Bisquets Obregón,19.2921551,-99.6554214,,,,
Toks,21.9089449,-102.3100007,,,,
El Secreto,18.9380676,-99.2258229,,,,
The Parrot Cracker,31.1227702,-114.9034925,,,,
Blue Azul,31.0898217,-114.8887256,,,,
Colorado,31.0872652,-114.8876205,,,,
Vapiano,19.3679415,-99.2598109,,,,
Vapiano,19.4411910,-99.2034783,,,,
Vapiano,19.4465725,-99.1359004,,,,
Panchos,23.2418186,-106.4525563,,,,
,20.4820528,-86.9720812,,,,
Spiritello restaurante Italiano,19.3230080,-99.1345445,Castor,,,
,18.9799514,-99.2354058,,,,
Rico Coktel,20.9738634,-97.3084135,,,,
Comedor Rosita,17.1884120,-96.5136968,,,,
Parrilla de Carbone,31.8500610,-116.6123580,,,,
Cheesters,21.1554529,-86.8427465,,,,
Barbacoa,21.1545271,-86.8437494,,,,
"Mercado 28, plaza bonita",21.1619215,-86.8341688,,,,
Hong Kong,21.1565385,-86.8309930,,,,
Restaurant El Senador,20.2910062,-102.7181292,,,,
Sushi Ken,21.1563714,-86.8215254,,,,
,19.2975995,-99.6354724,,,,
,19.2982551,-99.6340575,,,,
,18.8545161,-99.6866694,,,,
,18.8529829,-99.6863905,,,,
,19.2618631,-99.6197358,,,,
Frutos Prohibidos,19.4173550,-99.1596352,,,,
Hot Pepper,25.4841506,-100.9723702,,,,
Comidas Pronto,25.6485918,-100.2856574,,,,
Querétaro Rico,20.5933394,-100.3847623,,,,
Carnes al carbón la cabaña del rio,20.6006909,-100.3842527,,,,
Mi Cocina,23.0627267,-109.6943243,,,,
Pizza Hut,20.9675006,-89.5907760,,,,
,24.8252222,-100.0779539,,,,
,24.8252806,-100.0778252,,,,
Villa María,19.4355121,-99.1924985,Homero,,,
,19.3690530,-97.1887376,,,,
Casa Plena,16.7392911,-92.6329042,,,,
,25.7838452,-104.7635819,,,,
,26.9533269,-106.3499369,,,,
CarbónVino - Keparrilla,19.4122802,-99.1734712,Avenida Tamaulipas,,,
El Merito de Mar,19.4124825,-99.1732945,Avenida Tamaulipas,,,
"Taquería ""Del Parque""",21.0024444,-89.3957263,,,,
50 Friends,19.4126855,-99.1726828,Avenida Tamaulipas,,,
Pablo el Erizo,19.4118052,-99.1725219,Calle Fernando Montes de Oca,,,
Terré,19.4105151,-99.1756977,Calle Atlixco,,,
Casa Rosalía,19.4310659,-99.1411393,Eje Central Lázaro Cárdenas,,,
Café Plaza,18.9908844,-98.2013734,,,,
Vips,25.6683681,-100.3130040,,,,
Pizza Hut,18.8968116,-99.1678955,Boulevard Cuauhnáhuac,,,
Torteria Los Gueros,19.4144325,-99.1573995,Calle San Luis Potosí,,,
Cantina El Sella,19.4148746,-99.1531710,Doctor Balmis,,,
,20.4765406,-104.7889438,,,,
,20.4765105,-104.7867765,,,,
,20.3545206,-104.0839036,,,,
,20.1904634,-104.0379590,,,,
iFratelli,20.6122408,-103.4160658,Avenida Camino al ITESO,,,
"Hotel Hacienda, Santo Domingo",20.9287259,-89.0083189,Calle 18 corner 33,,,
Tacos Kino,14.9115411,-92.2528782,,,,
Bertha's Beach Club Restaurant,26.7331363,-111.9072095,,,,
,27.5173292,-107.8257294,,,,
Festa Italiana,19.4992524,-96.8586205,,,,
Restaurante La Fonda,19.5277056,-96.9213465,,,,
Tacos de Camarón,20.6111026,-103.4157100,,,,
La Faena,20.6127284,-103.4155656,,,,
Sirloin Stockade,20.6750081,-103.3487321,,,,
Toks,19.6049944,-99.0471448,"Av.Revolucion 01,San Cristóbal Centro",,,
,19.5983094,-99.0358283,,,,
El Porvenir,22.2338015,-97.8672856,,,,
Italianni's,19.5116370,-96.8771219,,,,
Shintai,19.5117343,-96.8770371,,,,
Asadero Cien,19.5118621,-96.8770551,,,,
Chili's,19.5125795,-96.8766985,,,,
Taquería El Tigrín,19.5364939,-96.9193038,,,,
"Cocina económica ""El zarape""",19.4063846,-99.1566188,,,,
"Taquería ""El Sismo""",19.4063015,-99.1566242,,,,
"""Los sabores de México""",19.4062618,-99.1566164,,,,
"Mariscos ""Margarito""",19.4072159,-99.1568864,Toluca,,,
Las Haras,18.9950388,-98.1174183,,,,
,28.5474184,-107.4863253,,,,
La Jirafa,20.9910064,-89.6163087,,,,
La Parrilla,21.0049398,-89.6149473,,,,
La Tratto,20.9950832,-89.6166896,,,,
Mi viejo Molino,20.9983335,-89.6176632,,,,
Benigan's,21.0005822,-89.6151634,,,,
Buenos Aires City,20.9976175,-89.6080110,,,,
Luigi's Ristorante,20.9914148,-89.6122972,,,,
La Gioconda,20.9937437,-89.6171332,,,,
Restaurant Cantamayec,21.0002268,-89.5979259,,,,
Las Típicas,20.9569452,-89.5679053,,,,
Budai,25.4959677,-100.9643075,,,,
Francesco's,25.4962485,-100.9642002,,,,
El Apenitas,25.4971247,-100.9645114,,,,
Las Tablitas,19.5072267,-96.8672550,,,,
La Naolinqueña,19.5070363,-96.8665477,,,,
El Racó den Perot,19.5338780,-96.9331177,,,,
Shintai Nippon Steakhouse,19.5282988,-96.9279396,,,,
El Limonero,19.5249557,-96.9244789,,,,
Rebozzo,19.5242029,-96.9213158,,,,
Churrería del Recuerdo,19.5317467,-96.9294277,,,,
Las Coronelas,19.5072205,-96.8674700,,,,
Tom Mix Taquerías,19.5309528,-96.9323322,,,,
Lekki,19.5338447,-96.9328994,,,,
La Finca Asadero,19.5301969,-96.9309043,,,,
El Mesón del Pollo,19.4992187,-96.8586352,,,,
La Cipolla,25.4566513,-100.9659629,,,,
Uno Piú,19.5342875,-96.8888454,Avenida Araucarias,,,
La Vena Cava Tavola-Bar,19.5324982,-96.8934571,,,,
El Costeñito,25.4968379,-100.9646777,,,,
Muchoburger,25.4849842,-100.9704498,,,,
Applebe's,18.1427482,-94.4881847,,,,
Italianni's,18.1433019,-94.4883107,,,,
La Pampa,23.0620458,-109.6964372,,,,
Taqueria Rossy,23.0600617,-109.7042289,,,,
Teo Bar and Grill,23.0588574,-109.6935216,,,,
La Dolce,23.0624332,-109.6950478,,,,
Mediterránea,19.5172724,-96.8813186,,,,
,23.0596101,-109.6933646,,,,
La Calzada,18.6393189,-91.8377460,,,,
Cafetería,21.0629347,-101.5807543,,,,
Cabo Ceviche,21.4888180,-104.8948736,,,,
La pasadita,25.4435946,-100.9945359,,,,
Taquería El Chino Mario,29.0813335,-110.9729717,,,,
Jo-Wah,29.0817299,-110.9720072,,,,
Los guisos,19.1440431,-96.1595638,,,,
Mr. Pampas,32.5183368,-117.0125039,,,,
La Cabaña de Alí,19.5229650,-96.9100304,,,,
Baja Brewing Company,22.8866431,-109.9088615,,,,
Vips,20.5173047,-100.7868790,,,,
Gran D,20.5416472,-100.6929757,,,,
,20.5271289,-100.8095185,,,,
Robinson Crash,20.5196256,-100.7999993,,,,
,20.5190339,-100.8281059,,,,
,20.5191433,-100.8296136,,,,
Lakshimi,20.5244539,-100.8145987,,,,
La bartola,20.5195907,-100.8239408,,,,
Dragon Rojo,20.5207889,-100.8113693,,,,
Mariscos,20.5938257,-100.3921118,,,,
El Angel,20.5916059,-100.3909437,,,,
El Sazon de la Doña,20.5450178,-100.6868678,,,,
Chinese Express,20.5450328,-100.6869187,,,,
La Rueda,20.5322884,-100.6682774,,,,
La Galera,20.5428819,-100.6777687,,,,
Jubilee Casino,25.6573260,-100.2796850,,,,
,19.4943425,-99.1134987,,,,
,19.4945221,-99.1135201,,,,
Doña Chilaca,21.1470579,-101.7093238,,,,
La casa del pan,19.3523831,-99.1652290,Avenida México,,,
Cafetería Moheli,19.3493284,-99.1644196,Avenida Francisco Sosa,,,
Moshi Moshi,19.3595272,-99.2700340,,,,
El Palacio de los Mayas,20.5287787,-100.7358100,,,,
Lupillo's,21.1172810,-101.6580042,,,,
Toks,21.1170885,-101.6567700,,,,
Ling Choy,21.1431254,-101.6861539,,,,
Xarcutería D'Jordis,21.1357679,-101.6876694,,,,
Al Dente,21.1361655,-101.6905662,,,,
Restaurante Escuela Zéfiro,19.4273279,-99.1380783,San Jerónimo,,,
,20.5093075,-100.8133384,,,,
Andolini,25.6660332,-100.3054798,,,,
Govinda,25.6702034,-100.3052008,,,,
Arlecchino,25.6773541,-100.2944505,Adolfo Prieto 2108,,,
La Providencia Zipolite,15.6650259,-96.5219835,camino a shambala,,,
,19.1468136,-102.2205559,,,,
La Morenita,20.4722014,-100.1075383,,,,
,19.1463479,-102.2256929,,,,
,19.1479898,-102.2244617,,,,
,19.1459450,-102.2196794,,,,
,19.1459247,-102.2194755,,,,
,19.1454255,-102.2201568,,,,
,19.1459526,-102.2209373,,,,
,20.5356510,-100.6982124,,,,
,20.5332417,-100.6948417,,,,
Akiin Beach,20.1510429,-87.4579168,,,,
Fonda Que Chula es Puebla,19.0426361,-98.1939174,,,,
La Zanahoria,19.0419172,-98.1973825,,,,
Tacos la Catedral,19.0434876,-98.1993025,,,,
El Rincón de Rivadavia,19.0599097,-98.3018264,,,,
Sushi Itto,20.5195495,-100.7957126,,,,
San Rafael,18.9382226,-97.8722910,,,,
El Cargador,24.0430792,-104.5966281,,,,
,20.4955366,-100.1317560,,,,
Chili's,19.4369357,-99.2070158,,,,
Sanborns,19.4375617,-99.2068996,,,,
El Rincon Argentino,19.4316433,-99.1889220,,,,
Pizza Hut,19.4333532,-99.1849684,Taine,,,
Casa Bonilla,19.4518649,-96.9593865,Cuauhtémoc,,,
El Patio de las Ranas,19.0454044,-98.1987804,,,,
Las Ranas,19.0454118,-98.1984266,,,,
Don Fidel,20.1400198,-98.6723559,,,,
El Minero,20.1384575,-98.6728851,,,,
La Chatita,20.1376986,-98.6727653,,,,
La Mesa de Don David,20.1392087,-98.6728024,,,,
El Popular,19.4342829,-99.1353851,5 de Mayo,,,24/7
La Pagoda,19.4347486,-99.1394688,,,,24/7
Tacos,24.8112075,-107.3872511,,,,
El Herradero,32.4792622,-114.7682284,Avenida Obregon,,,
Mr. Choby's,32.4787762,-114.7647529,Avenida Obregon,,,
La Cochinita,32.4782568,-114.7646940,Avenida Obregon,,,
Villa Florencia,15.6669074,-96.4913066,,,,
Los Portales,15.7649587,-96.1380944,,,,
Mama mia,15.7675701,-96.1396223,,,,
OKI SUchi,20.6709704,-103.4311510,,,,
Restaurante Mama Mia,20.9139377,-100.7445289,Umaran,,,
Restaurant La Terraza,20.9138826,-100.7433284,,,,
Hacienda Canelos,20.6544706,-103.4015408,Avenida Adolfo López Mateos Sur,,,
Cero7Veinte,20.2148511,-98.7310192,,,,
Hacienda El Charro,31.8642155,-116.6286471,Calle Primera,,,
Café Lusso,19.2907350,-99.6463410,Primero de Mayo,,,Mo-Sa 9:00 - 20:00
La Tarantela,19.2817128,-99.6585266,Calle José Vicente Villada,,,
Los Equipales,26.8909871,-111.9844801,,,,Mo-Su 07:30-22:00
Tacos El Rancho,30.6304236,-106.5144016,,,,
Tortas JR,30.6153164,-106.5157346,,,,
Burritos El Tejaban,30.6303059,-106.5143936,,,,
Tortas El Gordo,30.6204637,-106.5136370,,,,
Restaurant Lupita,30.6156995,-106.5148082,,,,
Restaurant Oscar's,30.6176315,-106.5147787,,,,
Restauranr Marquez,30.6212140,-106.5143093,,,,
La Noria,30.1528431,-106.8740505,,,,
México Lindo y Que Rico,26.0091546,-111.3434049,,,,
La Cascada,26.0097379,-111.3445341,,,,
1697,26.0112951,-111.3417231,,,,
La Fonda,23.0560377,-109.6943155,,,,
Beruzzo,19.0487987,-98.1960114,,,,
,19.8370984,-97.9929072,,,,
La Selva,17.5064960,-91.9903025,,,,
Amaro,20.9688233,-89.6232318,,,,
El Mana de Dios,19.5410956,-96.9259315,Av. Xalapa,,,
Papas del choro,19.5495047,-96.9293743,,,,
Antojitos de la señora,19.5509140,-96.9258565,,,,
Tacos Fide,19.5470646,-96.9257565,,,,
Hamburguesas Andres,19.5513382,-96.9272404,,,,
comida,19.5420362,-96.9293001,,,,
El Milagrito,30.6088110,-106.5154772,,,,
Mariscos Topolobambo,30.6091435,-106.5154182,,,,
Gruedas,30.6135849,-106.5150022,,,,
El Amigo Ramos,30.6102423,-106.5153485,,,,
El Alamo,30.6141249,-106.5148976,,,,
Comida corrida,19.5467234,-96.9276584,,,,
Mariscos Titys,30.6172345,-106.5125051,,,,
Restaurant Central Camionera,30.6218639,-106.5143697,,,,
California Hamburguesas y Burritos ,30.6225083,-106.5143552,,,,
Burritos Gutierrez,30.6223239,-106.5144679,,,,
El Indio,30.6198819,-106.5143874,,,,
Menuderia El Rey,30.6175317,-106.5161777,,,,
El Sinaloense,30.6197431,-106.5144250,,,,
Restaurant Montana,30.6383096,-106.5150337,,,,
Restaurant Dunas,30.6299700,-106.5146086,,,,
Restaurant El Paisano,30.6293214,-106.5146944,,,,
El Kiosco,30.6274796,-106.5143940,,,,
El Amigo,30.2568498,-106.8040687,,,,
Restaurant Rancho Blanco,30.1529432,-106.8746803,,,,
Burritos La Avenida,30.1468856,-106.8806698,,,,
Restaurant Arizona,30.6164706,-106.5151445,,,,
Tortas Ahogadalajara,20.6369748,-103.3711512,,,,
Restaurant El Parianchi,32.4810759,-114.7698716,Avenida Internacional,,,
Los Corridos,24.0359578,-104.6365225,,,,
,20.5222971,-100.8130067,,,,
,20.5202220,-100.8295691,,,,
Casa Vieja,20.5235328,-100.8153268,,,,
,20.5222972,-100.8124217,,,,
,20.5196191,-100.7958966,,,,
,20.5186394,-100.7944107,,,,
La Oveja Negra,19.5268408,-96.9197851,Callejón de González Aparicio,,,
Pollo Feliz,19.3501653,-99.1460652,,,,
Aquí está Texcoco,19.3460194,-99.1485718,,,,
,20.6527031,-100.4035916,,,,
,20.5364586,-100.8224165,,,,
,20.3606316,-89.7677561,,,,
Tabu Sushi,32.4477025,-114.7605992,Avenida Colima y 26,,,
El Arcángel,20.5914649,-100.3952394,Guerrero,,,
Piccola Italia,19.5322827,-96.8989570,,,,
La Carpa,18.8905313,-100.2118201,,,,
,18.8773548,-100.2273984,,,,
Sumikos,24.8097978,-107.3940772,,,,
Caprichito Montebello,24.7813772,-107.3923016,,,,
Panama,23.2436598,-106.4511478,,,,
Pelícanos,25.5990170,-109.0579887,,,,
Doña Rosa,24.8203132,-107.4258116,,,,
Sushi WoW,24.8218499,-107.4270998,,,,
Papas Roger,24.8178598,-107.4292750,,,,
La Majada,25.5509519,-103.4444696,,,,
RinRin Pizza,23.2058963,-106.4212379,,,,
Domino´s Pizza,23.2429541,-106.4491074,,,,
Restauran Bar la Costa Marinera,23.2609442,-106.4656398,,,,
Harry's,32.4777562,-114.7783881,Avenida Francisco Eusebio Kino 5ta y 6ta,,,
El Palomar,20.3398643,-102.0215770,20 de Noviembre,,,
NIKOY,20.6624824,-103.4242127,,,,
,18.8843721,-100.2188587,,,,
Mariscos Baja MAr,25.7926720,-108.9807486,,,,
Adobe Pizza,19.2576431,-103.7082509,,,,
Los Portalitos,19.5249298,-96.9126559,,,,
El Tío Yeyo,19.4524745,-96.9605307,Santos Degollado,,,
Los Portales,18.9607511,-99.6424042,,,,
El Buen Bife,19.3451233,-99.1576874,Calle Asia,,,
El Gnomo,19.3419661,-99.1813700,,,,
Akita Sushi,23.1966430,-106.4262941,,,,
Prendes,19.1998805,-96.1387210,,,,
,19.2004620,-96.1387545,,,,
Los Correa,20.6320992,-100.4057879,,,,
Los 3 poblanos,19.3357629,-99.1773798,,,,
Mesón Antigua Santa Catarina,19.3496794,-99.1712102,Jardín Santa Catarina,,,9:00-23:00
Las Lupitas,19.3495504,-99.1712330,,,,
Ave María,19.3488506,-99.1636109,,,,
Los Danzantes,19.3488715,-99.1636866,Plaza Jardín Centenario,,,"Mo-Fr 13:30-00:00, Sa-Su 09:00-02:00"
Entrevero,19.3488920,-99.1637580,,,,
La Esquina de los Milagros,19.3489773,-99.1642100,,,,
Yokiro Sushi Galerías Mazatlán,23.2793992,-106.4499414,,,,
Sushi Salads Galerías Mazatlán,23.2791933,-106.4497453,,,,
Red Mango Galerías Mazatlán,23.2800295,-106.4511366,,,,
Thrifty Galerías Mazatlán,23.2789445,-106.4496332,,,,
Yokiro Sushi,23.2405322,-106.4376169,,,,
Thrifty,23.2407468,-106.4376216,,,,
"Restaurant ""Teresita""",23.2019460,-106.4214276,,,,
El Farolito,19.4065249,-99.1727917,,,,
El Califa,19.4063453,-99.1725155,,,,
India Gate Puerto Vallarta,20.6135069,-105.2328560,Allende,,,
Pollos a la Leña,19.2020030,-88.1022513,,,,
Cenote Azul,18.6470061,-88.4129825,,,,"PH,Mo-Su 10:00-17:30"
,16.3441508,-93.4158927,,,,
Fishers,19.4328477,-99.1850784,,,,
MAKISU,31.7320249,-106.4127003,,,,
Sushigada,31.7262691,-106.4322026,,,,
Sanborns,19.4381334,-99.2007707,Avenida Moliere,,,
Al Andalus,19.4277282,-99.1290975,Mesones,,,
La Ola,20.6753477,-101.3439905,,,,
Asadero Las Brasas,32.4754045,-114.7549772,Avenida Obregón y 22,,,
Maxis Restaurant,32.4791923,-114.7676775,Avenida Obregón y 12,,,
Gran Armonía,32.4803893,-114.7715291,Avenida Obregón y 9,,,
Chiltepinos Wings,32.4825953,-114.7829969,Avenida Francisco Ignacio Madero y 1ra.,,,
Patio Mexica,17.6404687,-101.5521354,Adelita,,,
Sirloin Stockade,25.7347078,-100.3036684,,,,
Josephino's,25.7333746,-100.3045535,,,,
Applebee's,19.2671225,-103.6982290,,,,
La Casa de Las Leyendas,19.0392382,-98.2017671,Avenida 16 de Septiembre,,,
Tacotorro,25.5177336,-103.3931981,,,,
Taqueria El Vergel,25.5278903,-103.4354287,,,,
Tacos La Joya,25.5371217,-103.4352472,,,,
Los Placeres Restaurant,18.9510866,-99.4985318,Plaza Principal,,,
Andrea,20.6646675,-105.2594984,,,,
Cafe,20.6604371,-105.2496822,,,,
La Ribera,20.6633643,-105.2604967,,,,
,18.6696099,-99.5093977,,,,
Monchi Station,15.8337413,-97.0445956,,,,
Lychee Thai food,15.8335357,-97.0446318,,,,Mo-Su 16:45-00:15
El Lugar Restaurante & Bar,15.8334055,-97.0446061,,,,
"Restaurante familiar ""Rosa""",19.3631509,-100.2914030,,,,
Mookasa,20.4642663,-99.2214779,Lazaro Cardenas,,,14:00-22:30
Nohoch Kay Beach Club,18.7138820,-87.7094718,,,,
Oro De Monte Alban,18.7147088,-87.7083305,,,,
El Sabor De Mi Tierra,18.7156075,-87.7079111,,,,
Area la Sombrilla,19.8414496,-90.5336769,,,,
Chalulu,20.2193477,-87.4379477,Avenida Tulúm,+52 984 807 5092,https://chalulu-cafe.business.site/,"Mo 08:00-16:00; We,Th 08:00-17:00; Fr-Su 08:00-19:00; Tu off"
Paraiso,18.7191776,-87.7069346,,,,
La Gloria de Don Pepe,20.2111328,-87.4605400,,,,
"Antojitos ""La Chiapaneca""",20.2102388,-87.4663119,,,,
Taqueria,20.2090822,-87.4658466,,,,
Borges,20.2096095,-87.4668873,,,,
Doña Tina,20.2099871,-87.4671219,,,,
Bonna Pizza,20.5541449,-101.1978302,,,,
Montana,25.6678371,-100.3171891,,,,
IHOP,25.6533303,-100.3587160,,,,
Mr. Papas Biles,25.6599050,-100.3676994,,,,
Chilis,25.6495217,-100.3314802,,,,
Las Alitas,25.6601774,-100.3679988,,,,
Torre del Sol,16.8259393,-93.1877868,,,,
Ristorante del Italiano,16.8264990,-93.1871646,,,,
Pizza Hut,19.2925485,-99.1780365,,,,
Mariscos El Güero 2,17.9672530,-102.2031215,,,,
Rodri's Burguer,17.9617121,-102.2097785,,,,
Tamales el Sinaloense,31.7409806,-106.4241393,,,,
,20.6996880,-99.8211243,,,,
Mariscos El Paradero,25.3791283,-108.1323583,Constitucion,,,10:00-18:00
,19.2797396,-99.6078953,,,,
,19.2800940,-99.6079342,,,,
Mariscos Villa del Mar,31.7102138,-106.4084979,,,,
,16.3083709,-93.1558481,,,,
El Pejelagarto,16.8061441,-93.1886182,,,,
,19.3689693,-99.0744009,,,,
Sakura,32.6249794,-115.4518019,,,,
"Antojitos ""Don lalo""",23.7618529,-99.1198480,,,,20:00-23:00
Buffet Hotel San Angel,29.0935377,-110.9962580,Jesús García Morales,,,
Le Recamier,19.1754391,-100.1205630,Calle Fontana Luz,,,
Juan's Cafe,20.9167971,-100.7429798,Relox,,,
La Menudería,20.6692848,-103.3637371,Calle José Guadalupe Montenegro,,,
,19.5976257,-96.6320308,,,,
Restaurante Cenote Zací,20.6917299,-88.1978166,,,,
,19.5995079,-96.6400555,,,,
BAR EL NUEVO MIXTECO,19.5609986,-96.9154159,,,,
,19.5416184,-96.9258028,,,,
Tortas,19.5418308,-96.9302821,,,,
Restaurant de Doña Lupita,17.7903811,-92.0415640,,,,
El Trapiche,20.9680692,-89.6242470,62,,,
Vips,16.7962790,-99.8107545,,,,
El portón,16.7970222,-99.8122019,,,,
Helados Sultana,25.7828194,-100.2730723,,,,
La Tapatia®,19.3913764,-102.0582485,Paseo de la Revolucion,,,
Kaxapa Factory,20.6309589,-87.0712994,Avenida Constituyentes,,,
La Famiglia,20.6282893,-87.0725076,,,,
Pizza Stuff,32.4993855,-117.0015162,Av. de las Ferias,,,10:00-23:00
Loncheria Akumalito,20.3970625,-87.3150511,,,,
Piedra De Fuego,15.6642453,-96.5177720,Calle Mangle,,,
El 3 De Dicembre,15.6644157,-96.5189331,,,,
Taqueria La Palapa,15.6628758,-96.5147110,,,,
La Hacienda,20.7693447,-86.9509794,,,,
Le Marché,20.7694245,-86.9506216,,,,
L'Alsace,20.7697552,-86.9506257,,,,
Il'Olivo,20.7698465,-86.9508208,,,,
Ginger,20.7700669,-86.9512436,,,,
Tierra,20.7687365,-86.9471660,,,,
Mar,20.7688733,-86.9472148,,,,
The Lobster Pot,20.7689722,-86.9471091,,,,
PARAMO,19.3177194,-103.6684835,,,,
Applebee's,19.0437438,-98.2351394,,,,
Los Claros,23.0555985,-109.6933411,,,,
El Toro Güero,23.0632541,-109.6990673,,,,
,23.4371000,-109.4292136,,,,
ElQue Cviche,24.8159823,-107.3978177,Dr. Manuel Romero,,,
Tacos Providencia,20.6769558,-103.3931611,,,,
Cuarto de kilo,20.6670917,-103.4036923,,,,
JC's Restaurant,26.7328679,-111.9102403,,,,08:00-20:00
Don Epi,31.6070661,-106.4692312,,,,
Cocina Dos,19.3861369,-99.0589546,,,,
Valar Tacos,20.6783848,-103.3974875,,,,
Vips,20.6789663,-103.3975920,,,,
Asadero El Chumari 2,17.9612209,-102.2104266,,,,
El Polo Norte,20.6794224,-103.3726149,,,,
Cuatro vientos,24.0624525,-104.6048217,,,,
Nutri Cake Oh!,20.6010406,-103.4478939,,,,
Tacos Aaron,32.5305004,-117.1172957,,,,
Tito´s,32.5312906,-117.1122663,,,,
Lung Mon,32.5305871,-117.1148642,,,,
Taconazo,32.5300504,-117.1157026,,,,
Furter,20.6953449,-103.3837043,,,,Tu-Su 14:00-24:00
Sayulita café (La Casa del Chile Relleno),20.8692822,-105.4399466,,,,17:30 - 23:30
Choco Banana,20.8692703,-105.4407097,,,,
Galeana,17.9568145,-102.1947503,,,,
De Xin,17.9602625,-102.1957361,,,,
Hallo's Pizza,17.9627724,-102.1994565,,,,
Pollos J.B.,17.9628120,-102.1994884,,,,
Tortas Todo Rico,17.9630158,-102.1996509,Plaza Tabachines,,,
Susheria de Bi,20.6604657,-103.4089307,,,,
La Pacanda,17.9550225,-102.1921155,Guillermo Prieto,,,
,17.9626886,-102.2006317,,,,
Pollo Feliz 2,17.9631564,-102.2043836,Morelos,,,
,17.9620042,-102.2049490,,,,
Mariscos Topolobampo,17.9619957,-102.2112984,Tabachines,7531127285,,
,17.9616860,-102.2119628,,,,
El Pulpo 2,17.9614065,-102.2131967,Dr. Miguel Silva,,,
Taquería El Gallo,17.9678507,-102.2130450,,,,
Taquería Lobato,17.9685866,-102.2126645,,,,
Antojitos Los Amigos,19.2840329,-99.1861588,,,,
Comedor Comunitario,19.2843886,-99.1863800,,,,
Vicoo's Pizza,19.2885450,-99.1798762,,,,
El Tejado,17.9578749,-102.1955034,Av. Lázaro Cárdenas,,,Mo-Su 08:00-12:00
La Mega Mixta,17.9624179,-102.2145543,,,,
El Asadero Argentino,19.2915648,-99.1743140,,,,
Chetito,19.4159086,-99.1648832,"239 Col, Roma Norte",,,Tu-Sa 13:30 22:00; Su 13:30 18:00
Sabor a Mar,19.3032705,-99.6388999,,,,
Barbacoa De Borrego,18.0148563,-94.3920121,,,,
Aggios Aggelos,20.6608298,-103.4082813,,,,
El Rincón de Lalo de Sahuayo,20.6313192,-103.4074431,Avenida de la Patria,,,
Agios Aggelos,20.7202573,-103.3880522,,,,
Antojitos Mexicanos,20.7142039,-103.3929260,,,,Th-Tu 19:00-23:00
Los Piratas,20.6789301,-103.3680278,,,,
Bruno´s,20.6432996,-103.4008651,,,,
Boca del Cielo,20.6761819,-103.3673969,,,,
Osteria 10,20.6738195,-103.3696156,,,,
Las Antorchas,20.6695913,-103.3836932,,,,
,19.2855327,-104.7889800,,,,
,19.2859465,-104.7889897,,,,
,19.2978166,-104.8823102,,,,
Mike's,19.4720105,-103.3077330,,,,
,17.9753324,-102.3261348,,,,
,17.9758482,-102.3259438,,,,
Tomy Dogos,29.1030020,-110.9978655,Calle 9,,,19:00-24:00
Furter Dogos Gourmet,20.6639422,-103.3997917,Avenida Tepeyac,,,Tu-Su 14:00-24:00
Las Tlayudas,20.6375765,-103.4183494,,,,
Taquería El Palomo II,17.9617980,-102.2145367,,,,
La Tabasqueña,21.1342683,-89.1738769,,,,
Madero,20.1151673,-98.7247793,,,,
Restaurant Bar Bahia,23.4487528,-110.2242928,,,,
Landi's Restaurant,23.4506869,-110.2250974,,,,
Bob Marlin Bar & Restaurant (closed),23.4501308,-110.2245449,,,,
Todos Los Sanos,23.4495304,-110.2234023,,,,
,29.1956668,-108.1427510,,,,
Restaurant Bar El Capitan,31.0198240,-114.8351777,,,,
Costa Mar,21.4838526,-105.1994886,,,,
Crendi,21.4829543,-105.1997538,,,,
Gissel,21.4830124,-105.1997052,,,,
La Morena,21.4827627,-105.1998255,,,,
La Palma,21.4828703,-105.1997792,,,,
Lupita,21.4826551,-105.1998625,,,,
,17.1147372,-93.5840590,,,,
,17.1144666,-93.5839316,,,,
,17.1141351,-93.5839174,,,,
,17.1138780,-93.5838891,,,,
,17.1136277,-93.5838395,,,,
,17.1308162,-93.5951633,,,,
,17.1306600,-93.5950185,,,,
,17.1304056,-93.5951446,,,,
,17.1303922,-93.5950185,,,,
,17.1304636,-93.5948411,,,,
Tacostao,25.5094287,-103.3977242,,,,
LA GULA,19.1096737,-98.2502687,,,,
Asadero El General,31.0201255,-114.8450005,,,,
La Cabaña Restaurant,31.0234768,-114.8427155,,,,
Restaurant El Marino,31.0339059,-114.8282837,,,,
Club Naval del Sur,19.3191937,-99.1250344,,,,
Asadero El Chucata,31.0312250,-114.8338628,,,,
Taqueria Rosilina,31.0292138,-114.8369661,,,,
Testaurant Chencho's,31.0271986,-114.8323560,,,,
Hijos del Sushi,31.8584559,-116.6059483,,,,
El Pescador Restaurant Sport-Bar,32.2468379,-116.9371950,Carretera Tijuana-Ensenada,,,Mo-Su 08:00-22:00
Papas&Beer,31.8649310,-116.6289849,Calle Primera,,,
Pizza Hut,19.3009509,-99.1133442,,,,
Pollos Rio,19.3157997,-99.1245451,,,,
Piccola Osteria 10,20.6676744,-103.4045246,,,,
Las Palomas,25.4245700,-100.1514200,,,,
EL BALCÓN DE SANTA TERE,20.6837974,-103.3712015,Calle Alfredo Chavero,,,09:00-17:00
Toks Miramontes,19.3224823,-99.1333434,Avenida Canal de Miramontes,,,
Punto Como,19.4437195,-105.0242853,Artesanos,,,Tu-Su 16:00-22:00
Toks,19.4479080,-99.2069068,,,,
Vips,19.4533313,-99.1981812,,,,
,16.7975220,-95.0178251,,,,
El Tío,25.6700210,-100.3391082,,,,
Hamburguesas René,24.7914447,-107.4037133,,,,
El Gaucho,19.1723419,-96.1259351,,,,
Havana Moon,20.7642360,-86.9507390,,,,Fr-We 17:30-22:30; Th off
Balché,20.7648554,-86.9514410,,,,Sa-Th 07:30-17:30; Fr 11:30-17:30
Blue Fish,20.7653280,-86.9532990,,,,
,31.6315892,-106.3764859,,,,
,31.6291364,-106.3737662,,,,
Cafetería CICESE,31.8689931,-116.6675051,,,,
Okuma,20.6249016,-103.4141440,,,,
,20.6361963,-100.4008123,,,,
,20.6398011,-100.4052346,,,,
,20.6344359,-100.3957265,Avenida Plateros,,,
Cafetería de la UAQ,20.7033990,-100.4427311,,,,
Potzolcalli,19.4780353,-99.1847096,,,,
Meson Taurino,19.4795704,-99.1863677,,,,
Curchis Chicken,19.4795990,-99.1876881,,,,
VIPS Refineria,19.4708525,-99.1908636,,,,
El Portón Azcapotzalco,19.4714249,-99.1930312,,,,
Vips,19.4680498,-99.1768217,,,,
Los Bisquests Obregon,19.4691249,-99.1765841,,,,
Pasteles Kikey,31.9720577,-116.6565158,,,,
Benedetti´s Pizza,19.4706570,-99.1678860,,,,
Abarrotes de Rosy,32.4627009,-114.7270474,Calle 44,,,
Argentino Steakhouse,20.6835463,-101.3772725,Plaza Murano Local,,,
Tortas Robles,19.4359880,-99.1465082,,,,
El Rincón Zapatista,19.4220039,-99.1385395,Calle Zapotecos,,,
Vips,18.1479519,-94.4162804,,,,
La barra de Álvarado,18.1478555,-94.4355294,,,,
Le Chef,20.5072471,-86.9520903,,,,
,20.7156151,-101.3490099,,,,
Pollo Feliz,19.3897686,-99.0350385,,,,
Las campanas,20.6897379,-88.2023331,Calle 42,,,
Playa Corona,20.4349704,-87.0022137,,,,
Papa Hogs,20.4878644,-86.9680894,,,,
Del Sur,20.5080900,-86.9511092,,,,
,17.5110946,-91.9855137,,,,
Julius Pizza,19.3942327,-99.1798009,,,,
La RE Pizza,19.3927451,-99.1794844,,,,
La Gruta,19.6889105,-98.8397094,,,,Mo-Su 11:00-22:00
El Porton,22.7621004,-102.5490239,,,,
2 Amigos,31.4093696,-106.4615419,,,,
Monster Burguer,17.9961668,-102.2270788,,,,
Tacos Orientales,28.6538451,-106.0984277,,,,
Asados Don Abel,19.4299105,-99.1655898,Calle Río Lerma,,,
Rey del Taco,19.3516126,-99.1515845,Avenida División del Norte,,,
Valencia Express,19.4259729,-99.1709652,Paseo de la Reforma,,,
Musume,19.4272359,-99.1712571,Río Nilo,,,
Daikoku,19.4284272,-99.1718987,Río Pánuco,,,
Les Moustaches,19.4296327,-99.1656224,Calle Río Sena,,,
Las Tinajas,19.4290837,-99.1731306,Melchor Ocampo,,,
Centro Castellano,19.4310996,-99.1401223,República de Uruguay,,,Mo-Su 13:00-23:00
Jamón Jamón,19.4178456,-99.1608319,Alvaro Obregon,,,
Paraíso,17.0555543,-96.6530916,,,,
El Milenario,17.0452557,-96.6365257,Guerrero,,,
Barbacoa Juriquilla,20.7058156,-100.4380914,,,,
Hacienda San Gaspar,18.8604176,-99.1600819,,,,
La Casa del Pirata,17.0522281,-96.7229303,2a Privada de La Noria,,,
Restaurante Bar Ya Yen,19.2874693,-99.6256576,,,,
Restaurante Villa Victoria y Eventos Especiales,16.2216178,-92.1221697,,,,
,16.4594333,-94.8865817,,,,
Bajo el Cielo de Jalisco,19.0404947,-98.1969338,,,,
Taqueria Los Angeles,19.0467820,-98.1951174,,,,
Mama Mia,20.9533299,-97.4061687,,,,
Vips,19.4158438,-99.1276014,Calz. de la Viga,,,
La Casa de los Tacos,19.3482591,-99.1632916,Calle Felipe Carillo Puerto,,,Mo-Tu 10:00-21:00;We-Th 10:00-22:00;Fr-Sa 10:00-00:00;Su 10:00-22:00
Casa Real Poblana,19.0449546,-98.1955026,,,,
Cuetzalan Mío,19.0571805,-98.2246370,,,,
Antigua Taqueria La Oriental,19.0469643,-98.2097163,,,,
Lo Nuestro,19.0459341,-98.1959317,,,,
Re Mare,19.0550284,-98.2226029,,,,
Vips,19.0517417,-98.2179914,,,,
Javics,31.6975642,-106.4110709,,,,
Okinawa Sushi Bar,32.4645706,-114.7670534,Av. Libertad 16 y 17,,,
Asia Aki,32.4663928,-114.7733186,Av. Libertad y 12,,,
Happy Salad,32.4741010,-114.7628709,Avenida Miguel Hidalgo y Costilla y 17,,,
Mariscos Los Angulo,32.4807601,-114.7719473,Avenida Obregón y 9,,,
Super Pollo,24.1296006,-110.3115459,,,,
restaurante Cazadores,20.2882177,-103.1926397,,,,
Restaurant Los Cristales,19.5409629,-96.9103524,,,,
Cambalache,19.3709392,-99.1796601,,,,
Comidería Doña Paty,16.7253102,-92.6485721,Jose Maria Morelos,,,
Taqueria Fokus,19.1928883,-96.1524052,,,,
La Mansión,28.6279312,-106.1190301,Periférico de la Juventud,,,
Ostionería La Perla,19.5329184,-96.9235590,,,,
Antigua Taqueria La Oriental,19.0053366,-98.2383325,,,,
Pizza Hut,19.0054149,-98.2383055,,,,
Las Adoraditas,21.0300498,-89.6427440,,,,Mo-Su 07:00-23:00
La Noria,23.6617645,-100.6363038,,,,
,20.5924544,-100.3882077,Independencia,,,
Abregos,20.5977798,-100.3942381,,,,
El Chipo,32.5156686,-116.0787795,,,,
Los Naranjos,32.0613607,-116.5913469,,,,
Pollo Feliz,24.7538678,-107.4291108,,,,
El Bodegon,19.4539303,-97.6861696,Av. Avila Camacho 4 Sur,,,
Dumbo Ayala,32.4792346,-114.7836988,,,,
El Sarape,32.4663724,-114.7586435,,,,
Piacenza,19.6035606,-99.1904533,,,,
Tinacal,19.6032967,-99.1902618,,,,
Pizza Hut,19.4704581,-99.1686003,,,,
Cat Cheon,32.4689523,-116.9175278,,,,
Marisqueria La Cabaña,19.4665354,-97.6822578,,,,
Mi Viejo San Juan,19.4635406,-97.6876701,3 Poniente,,,
No Me Olvides,19.5250251,-96.9190153,Miguel Hidalgo,,,
Pasteles y Pizzas Los Berros,19.5245444,-96.9186747,,,,
La Casona del Beaterio,19.5264430,-96.9213327,,,,
Cocina D'Arte,19.5288607,-96.9191433,,,,
La Trattoria,19.5291029,-96.9183169,,,,
Danillo's Pizza,19.5249328,-96.9192164,,,,
Restaurant Taurino,18.9572446,-99.2635427,,,,
Polleria,18.9569586,-99.2620060,,,,
Pizza Roma,18.9571621,-99.2631246,,,,
Azucena Zapoteca,17.0635255,-96.7240785,,,,
Los Compadres,19.6791981,-101.2258623,,,,
Cenaduria Dona Tere,20.4322376,-103.9324444,Independencia,,,
Orangerie,21.1526570,-101.7242915,,,,
La Nuez,20.6093530,-100.3811638,,,,
Cenaduría Lupita II,19.6898089,-101.1505970,,,,
Applebee's,19.6870375,-101.1544510,,,,
Solar de Villagrán,19.6867098,-101.1588275,,,,
Tortas el mago,19.6851282,-101.1649146,,,,
Taquería el infierno,19.6835128,-101.1673986,,,,
Andiamo Pizzas,19.6832200,-101.1676039,,,,
Taquería El Infierno,19.6945010,-101.1695359,,,,
Pollo Loco,19.6955487,-101.1662458,,,,
La Casa de la Arrachera,19.6906052,-101.1628323,,,,
Emilianos,19.6902334,-101.1604168,,,,
Cenaduría El Infierno,19.6894916,-101.1725111,Boulevard Arriaga Rivera,,,
San Miguelito,19.6808070,-101.1810452,,,,
Pizzería DeLeña,19.6896226,-101.1682590,,,,
Tacopolis,19.6900170,-101.1701155,,,,
Cenaduría Lupita,19.6939635,-101.1842917,,,,
El Pollo Feliz,19.4979206,-96.8604975,,,,
Las Monjas,20.5916811,-100.3978949,Ezequiel Montes,,,
Erlum,20.5889042,-100.3940289,José María Arteaga,,,
Marisquería,20.5870227,-100.3926031,,,,
Pizzería,20.5867640,-100.3932928,,,,
Bananas,15.8517153,-97.0548436,,,,
,28.3124143,-100.3735532,,,,
Tacos de Mixiote,20.6038438,-100.3991016,,,,
Sushiitto,20.5974444,-100.3737461,,,,
Sanborns,19.4544732,-99.1310897,,,,
Tacos casa de campo,19.5221265,-96.9281591,,,,
El 9 Restaurante Yucateco,20.6085040,-100.3796847,,,,
Pizza & Love,24.8621290,-99.5569360,Álamo,,,
Du Mexique,21.1615538,-86.8211076,,,,
Italianito Ristorante,27.0844067,-109.4544615,Boulevard Centenario,,,Mo-Su 17:00-23:00
La Terrazza,21.1443894,-101.6877932,,,,
Hamburguesas La 20,20.4490922,-97.3214056,,,,
"Restaurant ""La Jefa""",20.6923368,-88.1868088,,,,
"Restaurant ""La cantina""",20.6895017,-88.2012121,,,,
El Atrio del Mayab,20.6895368,-88.2015349,,,,
Oasis Familiar,20.6861135,-88.1981171,Calle 38,,,
La Sazón de Tlalpan,19.2890855,-99.1666832,,,,
Tamayo,19.2891460,-99.1663806,,,,
Peter Piper Pizza,19.6836883,-101.1656249,,,,
La Guera,31.5728810,-106.4675625,,,,
Restaurante California,19.6480951,-99.2078068,,,,
El Portón,19.4459930,-99.1529700,,,,
Miramar,21.5165206,-87.6785735,,,,
,31.7080092,-106.4056417,,,,
Carl´s Junior,31.6569819,-106.4300733,,,,
Tacofish,31.7080209,-106.4292442,,,,
Kong Fui,32.4421577,-117.0353838,,,,
,32.3772714,-117.0591370,,,,
Chiltepinos,32.4447755,-117.0352819,,,,
,32.4448167,-117.0349334,,,,
,32.4345569,-117.0243128,,,,
Mamma Mia,32.4416135,-117.0374057,,,,
La Gloria,19.3350489,-99.1795850,,,,
Pizza Copilco,19.3349899,-99.1794250,,,,
Pizzería Copilco,19.3346458,-99.1784133,,,,
Cenaduría Los Mochis,32.4343893,-117.0313442,,,,
Tacos La Joya,25.5494401,-103.3655430,,,,
Laja,32.0582273,-116.5939878,carretera Tecate-Ensenada,,,
,20.5180932,-100.8045008,,,,
Las mejores tortas,20.5190277,-100.8062496,,,,
Sam Rof,20.5228506,-100.8134696,,,,
,20.5207309,-100.8005311,,,,
Los Delfines,20.5417611,-100.6932808,,,,
Tai Ki Shi,32.5224469,-117.0321507,Blvd. Fundadores,,,
Mariscos La Cacho,32.5214777,-117.0289502,,,,
Titos,17.0624265,-96.7253339,,+52 951 51 6 19 71,,
Catedral Restaurante Bar,17.0629301,-96.7254369,Calle de Manuel García Vigil,,,Mo-Su 08:00-22:30
El General Restaurant Bar,27.0811113,-109.4446259,Calle General Ignacio Pesqueira Sur,,,Mo-Sa 07:00-02:00; Su 07:00-12:00
Las Campanas,17.1032968,-96.7115455,,,,
Vittorio's,32.5270388,-117.0362146,Avenida Revolución,,,
Ocean Grill,20.5129048,-105.3255665,,,visit-vallarta.com,
Restaurant Sabores,17.0812515,-96.7173671,,,,
El Xibre,17.0812226,-96.7171848,,,,
Restaurant Don Lauro,21.4262625,-104.8990714,,,,
El Siete Mares,21.2939854,-100.5232896,,,,
Domino's Pizza,22.3181187,-97.8777988,,,,
Mi Casita,20.5443244,-100.6891578,,,,
El Rosario,17.0831961,-96.7207669,,,,Mo-Sa 09:00-18:00
Casablanca,17.0804159,-96.7211082,Circuito Sur,+52 951 51 3 57 54,,
Playa Bonita,20.3471069,-86.9035188,,,,
Chen Rio,20.3829386,-86.8753344,,,,
Coconuts,20.3875424,-86.8716621,,,,
Punta Morena,20.4032877,-86.8578891,,,,
Senor Iguana's,20.4232498,-86.8431368,,,,
Carlos and Charlie's,20.4020819,-87.0173510,,,,
Mr. Sanchos,20.3900343,-87.0213314,,,,
Playa Palancar,20.3547115,-87.0236491,,,,
Paradise Beach,20.4007243,-87.0172973,,,,
Nachi-Cocom,20.3846942,-87.0216025,,,,
San Francisco Beach,20.4016226,-87.0173904,,,,
Pizza,20.6503743,-100.4327287,,,,
Don Vito,20.6483965,-100.4319885,,,,
Buffalo Wings,20.6900029,-100.4367032,,,,
Chinese,21.2961618,-100.5242350,,,,
Amazonia,19.6823351,-101.1892899,,,,
El Negro,20.9906303,-100.3933946,,,,
Marisquería Playa del Carmen,17.0647583,-96.7175911,Calle de la Constitución,+52 951 13 2 51 25,,
,32.5316268,-116.9577893,,,,
Hoshi,17.0804729,-96.7166799,,+52 951 13 2 59 35,,
La Red,17.0808449,-96.7164655,,,,
Terranova,17.0423566,-96.7155219,,,,
Applebee's,32.5304280,-117.0260530,,,,
"Gorditas ""La especial""",23.7329050,-99.1301914,,,,
,25.0728469,-108.0584612,,,,
,25.0720855,-108.0592738,,,,
,25.0726732,-108.0582563,,,,
Pollo Ranchero,20.6525168,-105.2171100,,,,
Daiquiri Dick's,20.6024492,-105.2381705,,,,
,20.6514135,-105.2164399,,,,
Kabuki,20.6012080,-105.2378620,,,,
Mariscos El Patio,20.6523258,-105.2178430,,,,
Andale,20.6011752,-105.2376297,,,,
Tacos Neto,20.6524255,-105.2179127,Juárez,,,8:00 - 22:30
El Pergola,20.6519607,-105.2154873,,,,
Restaurant California,20.6514644,-105.2166174,,,,
El Pechugón Rosticerías,20.6573168,-105.2192316,,,,
El Pechugón Rosticerìas,20.6524135,-105.2192873,,,,
La Fabula Pizza,20.6513317,-105.2191874,,,,
Tacomar,20.6529106,-105.2207215,,,,
Sonora ala Parrillo,20.7576225,-105.3415089,,,,
Comida China,23.7551633,-99.1600597,,,,
,23.7325156,-99.1483500,,,,
Los Mangos,20.5124707,-105.3154332,,,,
Restaurant Playa Mi Ranchito,20.5122747,-105.3155341,,,,
La Cecicheria Lo Dr Magy,20.5125248,-105.3149124,,,,
Restaurant El Embarcadero,20.5130230,-105.3153893,,,,
Boca Del Mar,20.5123680,-105.3155317,,,,
Toro Quintaco,31.6840593,-106.4241673,,,,
Estudio Cafe,20.6889634,-105.2902188,,,,
Wing's Army,20.6126032,-105.2337048,,,,
La Bodega Del Medio,20.6137140,-105.2330025,,,,
Restaurante Tito's,20.6147142,-105.2322735,,,,
Pollo Feliz,20.6190144,-105.2311508,,,,
Paradise Burger,20.6126852,-105.2336201,,,,
Hamburguesas Al Carbon,20.6191630,-105.2311209,,,,
Restaurante Mariscos Malecon,20.6143081,-105.2329502,,,,
El Arrecife,20.6152709,-105.2322229,,,,
Salsa Brava,20.6161035,-105.2318557,,,,
Restaurant Rio Grand,20.6176415,-105.2316160,,,,
Mango's Beach Club,20.6175518,-105.2323109,,,,
La Dolce Vita,20.6120972,-105.2339854,,,,
La Chata,20.6123886,-105.2338252,,,,
Wong Wong,20.6170147,-105.2314920,,,,
Cesare,20.6183086,-105.2312195,,,,
Chilam Balam,20.6155261,-105.2320735,,,,
Hui Huang,20.6158671,-105.2319445,,,,
Rico Taco Mac,20.6171734,-105.2317274,,,,
Salsa Grill,20.6188475,-105.2313665,,,,
The Omelet's House,20.6084878,-105.2350230,,,,
La Cervecería Unión,20.6114108,-105.2343840,,,,
Taquerias El Güero,20.6115439,-105.2332461,,,,
Aqui Es Jalisco,20.6100759,-105.2342436,,,,
Los Alamos,20.6100163,-105.2342789,,,,
Senor Frogs,20.6092997,-105.2352090,,,,
Mi Querencia,20.6093857,-105.2351423,,,,
Bar Oceano Restaurante,20.6107554,-105.2347084,,,,
La Posta,20.6095544,-105.2350415,,,,
Cheeky Monkey,20.6108904,-105.2346347,,,,
Viejo Vallarta,20.6098423,-105.2347462,,,,
Republica Taco,20.6109918,-105.2345941,,,,
Melissa's,20.6117007,-105.2327217,,,,
Apolonia's,20.6191143,-105.2304307,,,,
Pan & Que,20.6150961,-105.2311492,,,,
Pepe's Tacos,20.6189683,-105.2307892,,,,
Taquitos Acapulca Vallarta,20.6138738,-105.2320646,,,,
Vancouver Wings,20.6134429,-105.2327766,,,,
Alfredo da Roma,17.0651500,-96.7237836,,,,
Marisqueria Neptuno,17.0693012,-96.7215539,,,,
María Bonita,17.0684077,-96.7231987,,,,
Casa Mayordomo,17.0640840,-96.7239937,,,,
Ciao Italia,17.0693922,-96.7220833,,,,
La Abuela,17.0693692,-96.7218947,,,,
La Tlayuda,17.0654191,-96.7238683,,,,
Rincón Oaxaqueño,17.0685500,-96.7231805,,,,
Trástevere,17.0708761,-96.7220174,,,,
Pizza Rústica,17.0688161,-96.7231320,Calle de Macedonio Alcalá,,,
Punta Arena,20.6770419,-105.2867516,,,,
FENG HUANG,20.5875892,-100.3911031,,,,
El Andariego,20.6207434,-105.2307435,,,,
Taquitos Vallarta,20.6197038,-105.2309967,,,,
Pollos Callarta,20.6194087,-105.2310860,,,,
Pizza Metro,20.6119345,-105.2336751,,,,
Burrito Beach,20.6154111,-105.2321418,,,,
El Punto,20.6186979,-105.2314296,,,,
El Majayote,20.6213232,-105.2291071,,,,
Gaby's,20.6091263,-105.2342176,,,,
Hakuna Matata,20.6222561,-105.2273202,,,,
El Malecon,20.6224742,-105.2282508,,,,
Nikkei Sushi,20.6127248,-105.2325778,,,,
Hostería de Alcalá,17.0645675,-96.7240529,Calle de Macedonio Alcalá,,,
Pizza Nostrana,17.0657285,-96.7239159,,,,
,17.0655897,-96.7242613,,,,
Comala,17.0656022,-96.7243589,Calle de Ignacio Allende,,,Mo-Sa 12:00-00:00
Mezzaluna,17.0656354,-96.7245866,,,,
Los Danzantes,17.0650892,-96.7240474,Calle de Macedonio Alcalá,,,Su-We 13:00-22:30; Th-Sa 13:00-23:30
Sushi Saikou,17.0642212,-96.7238583,,,,
Cafe Vitea,20.6077757,-105.2369244,,,,
Pinochio,20.6066865,-105.2374136,,,,
Marisco's,20.6069228,-105.2373011,,,,
Outback Steakhouse,20.6493673,-105.2393430,,,,
Bella Napoli,20.6067533,-105.2371456,,,,
Roberto's,20.6083011,-105.2366414,,,,
,20.6923726,-105.2728989,,,,
Mariscos,20.6942558,-105.2733159,,,,
Taqueria Doña Vicky,20.6929388,-105.2730087,,,,
"La Cocina Mexicana De ""Sinai""",20.6913444,-105.2794495,,,,
Eddie's,20.6881447,-105.2925531,,,,
Tacos Break,20.6894065,-105.2858480,,,,
Extea Gastrobar,20.6885541,-105.2918912,,,,
Taqueria Aguirre,20.6911008,-105.2751667,,,,
Lonchería El Paraíso ,20.6937267,-105.2731604,,,,
Wine & Burger,20.6885506,-105.2917956,,,,
Horno 320 Pizza,32.5237921,-117.1238242,,,,
The Burger Custom Made,20.6769592,-105.2857248,,,,
Salum,20.6801879,-105.2881020,,,,
Epazote Mexican Authentic,20.6782793,-105.2852754,,,,
,20.6269199,-100.4072163,,,,
,20.6270066,-100.4072261,,,,
Gorditas El Tigre,23.7614567,-99.1087609,,,,
La Cabaña,23.7615254,-99.1089191,,,,
Burrito Express,23.7182320,-99.0949153,,,,
,20.5426698,-100.6928354,,,,
,20.5391158,-100.6977385,,,,
Charolas Savedra,20.6003924,-100.3988379,Nicolás Bravo,,,
,20.5907244,-100.3975024,,,,
Super Tamales y Atole Los Arcos,20.5891091,-100.3934522,José María Arteaga,,,
Tamales y Atole Arteaga,20.5893207,-100.3936470,José María Arteaga,,,
Blue Fish,20.6789589,-105.2857439,,,,
Ola Mulato,20.6821842,-105.2894278,,,,
Samba,20.6833831,-105.2880755,,,,
,20.6904878,-105.2736335,,,,
Freshco,20.6810275,-105.2807546,,,,
,20.6907606,-105.2765001,,,,
Tramonto,20.6834421,-105.2869777,,,,
El Rincón de los Sentidos,20.5906070,-100.3897252,Reforma,,,
,19.2892660,-99.1637687,,,,
Rancho Tollocan,19.3058824,-99.1252352,,,,
La Chaya Maya,20.9698010,-89.6239436,,,,
Las Quince Lettras,17.0640979,-96.7208062,Calle de Mariano Abasolo,,,
Casa Maria Lombardo,17.0640860,-96.7207367,Calle de Mariano Abasolo,,,Mo-Su 14:00-23:00
Tacos Roy,17.0639642,-96.7200248,,,,
Barlito Restaurant,21.2431239,-86.7399503,,,,
Espadas Do Brasil,19.2881825,-99.6583291,,,,
Cocina Mexicana Don Gume,19.2882876,-99.6583384,,,,
Applebee's,32.5087957,-116.9923150,,,,
Cheripan,32.5087351,-116.9928999,,,,
La Universal,18.9223461,-99.2345429,,,,
Tito's,17.0417047,-96.7126161,,,,
Tortas Gaby´s,19.3108298,-97.9223095,,,,Mo-Su 11:00-22:00
Pollos Asados,19.3160140,-97.9369530,,,,
Restaurante Malintzi,19.3848337,-98.0447042,,,,
Pollos Asados Guerrero,19.4130618,-98.1192836,,,,
Tortas La Texana,19.4136612,-98.1345873,,,,
Tortas de Ojocaliente,21.8460723,-102.7178165,Zaragoza,,,07:00-22:00
La Bartola,17.0392654,-96.7120942,,,,
Terranova,17.0392796,-96.7127704,,,,
Hong Kong,17.0812105,-96.7112987,,,,
Carnitas Manríquez,17.9612750,-102.2066199,Avenida Melchor Ocampo,,,Mo-Su 10:00-17:00
Huarachería Lupita 2,17.9552231,-102.1929788,,,,
La Montejo,19.4039762,-99.1716795,,,,
Los Álamos Restaurante,27.0960825,-109.4464261,Calle General Ignacio Pesqueira Norte,,,Mo-Su 07:30-22:30
Carnitas Santa Clara,17.9581030,-102.1940461,,,,
El Príncipe Tutul-Xiu,20.9320843,-89.6151495,,,,
La Chaya Maya,20.9709475,-89.6231585,Calle 55,,,
Tacos el Güero,25.6904650,-100.2512960,,,,
La Tratto,20.9714289,-89.6224000,,,,
Los Balcones,19.3141323,-97.9222432,,,,
La Hacienda,19.0880827,-97.9738934,,,,
Puerto Vallarta,19.0501312,-98.0299237,,,,
Cafeína,17.0807943,-96.7141344,,,,
Fish Bowl,17.0807798,-96.7140189,,,,
Casa de Juanjo,20.5200335,-100.8091655,,,,
,20.5108166,-100.8082759,,,,
,20.5213980,-100.8150987,,,,
,20.5191924,-100.8351911,,,,
,20.5254498,-100.8468480,,,,
,20.5261129,-100.8485941,,,,
El Sazón Istmeño,17.0618012,-96.7236998,,,,
La Casa de la Abuela,17.0610867,-96.7257908,,,,
,20.5315597,-100.7792613,,,,
La Hacienda,21.0355068,-86.7789896,,,,
Il Rústico,24.1565723,-110.3171616,,,,
,19.6839700,-100.5197605,,,,
Vips,19.7885634,-99.0560281,,,,
Restaurant Happy,31.4127575,-106.4615473,,,,
Restaurant Bar Familiar Los Tucanes,19.5361282,-96.9003602,Constituyentes de 1917,,,
Pancho's Backyard,20.5144586,-86.9467582,,,,
Taquería El Tenampa,20.5657325,-100.3782914,,,,
,20.5623736,-100.3752946,,,,
,20.5624896,-100.3754082,,,,
,20.5666472,-100.3791175,,,,
Hooters,20.5074440,-86.9551251,,,,
Hard Rock Cafe,20.5072822,-86.9546103,,,,
Lulaa,17.0652130,-96.7212522,,,,
Pepe's Grill,20.5095210,-86.9512674,,,,
Pizza Hut,20.5087796,-86.9520734,,,,
Fogo do Brasil,20.5082701,-86.9530952,,,,
Hard Rock Cafe,20.4782695,-86.9726696,,,,
Pancho's Backyard,20.4768069,-86.9746154,,,,
Tres Amigos,20.4751980,-86.9756764,,,,
Palmeras,20.5109900,-86.9498039,,,,
Las Palmas,20.5051215,-86.9483313,,,,
La Mission - Cozumel,20.5093891,-86.9508544,,,,
Karlita's,18.7171059,-87.7072748,,,,
Senor Frog's Beach Club,18.7225128,-87.7034867,,,,
Tequila Beach Club,18.7223240,-87.7038596,,,,
Tropicante Ameri-Mex Grill,18.7172272,-87.7069410,,,,
Pizza Papi,18.7339203,-87.7013095,,,,
Blue Kay Beach Club,18.7226013,-87.7033246,,,,
,20.5141568,-100.7988328,,,,
Del Jardín,17.0788130,-96.7191423,,,,
El Asador Vasco,17.0788058,-96.7190529,,,,
Cobriso,17.0781951,-96.7186309,,,,
Terranova,17.0781622,-96.7190404,,,,
Pizza Leggera,17.0787554,-96.7191539,,,,
Gerardo`s Pizza,20.3476346,-102.7730471,,,,
Comedor La Palma,19.4378751,-96.8998801,,,,
La Tasca De La Paz,21.0165543,-101.2539777,Plaza de la Paz,,,
El Canastillo de Flores,21.0166202,-101.2540390,Plaza de la Paz,,,
Kinta,20.5116755,-86.9479591,,,,
Tiki Tok,20.5124821,-86.9483834,,,,
Las Fuentes,17.0642124,-96.7188437,,,,
La Casa de la Arrachera,19.6894575,-101.1696326,Boulevard García de León,,,
La habichuela Cancun,21.1621207,-86.8280616,,,,
El Gordos,20.7310990,-105.2822806,,,,
El 123,19.4332482,-99.1493551,,,,
,20.5200961,-100.8002450,,,,
,20.5745121,-100.3829787,,,,
,20.5861568,-100.3893245,Colón,,,
La Canasta de Libres,17.0787216,-96.7177918,,,,
Oriental Grill,20.6144618,-100.4100683,,,,
Potzol del Cano,20.6141438,-100.4101815,,,,
Usita,17.0842532,-96.7215342,,,,Mo-Sa 13:00-17:00
Los Mixiotes Av.Hidalgo,20.5899890,-100.4059730,Calle Miguel Hidalgo,,,Mo-Su 08:30-23:00
,20.7678270,-105.2225914,,,,
Picante,17.0809508,-96.7197137,,,,
Doña Rebe,17.0810572,-96.7196610,,,,Mo-Sa 13:00-17:00
LaVaca,20.6744359,-100.4335770,,,,
,20.5716194,-100.4150348,,,,
,20.5724253,-100.4154494,,,,
,20.5747137,-100.4152464,,,,
Taquería Chemao,19.6901264,-101.1727895,Boulevard García de León,,,
,20.5567587,-100.4122087,,,,
El Guajolote,17.0621466,-96.7225970,,,,
El Sabor de mi Tierra,17.0623732,-96.7218302,Avenida de José María Morelos,,,Mo-Su 08:00-17:00
Buffet del Chef,17.0624456,-96.7220820,,,,
Pescado Rock,17.0629283,-96.7202887,,,,
Santo Sabor,17.0627697,-96.7194450,,,,
Mi Viejo Pueblito,19.2321464,-98.3764354,Autopista México-Puebla,,,
Restaurante Sergio´s,18.8805436,-97.7225543,,,,
,20.7522344,-105.3267657,,,,
FAMAR,20.7533631,-105.3302687,,,,
Los Arroyos Verdes,20.7667737,-105.3170373,,,,
Casa Don Rodrigo,23.0608353,-109.6944465,,,,
7 Seas,23.0238983,-109.7168899,,,,
Los Chapulines,17.0635754,-96.7236302,,,,
Wings Army,20.7552198,-103.3855594,Avenida Río Blanco,,,
"Tamales ""Teresita""",19.4486015,-99.1451649,,,,
Marisqueria Dionicio´s,19.4667363,-97.6855688,,,,
Los Cuchos Caldos,17.0769157,-96.7193864,,,,
El Maná,17.0773935,-96.7195824,,,,
Pollo Brujo,17.0775980,-96.7193217,Calzada Porfirio Díaz,+52 951 51 5 65 42,,
Ramón camarón,17.0774357,-96.7193531,,+52 951 13 2 86 15,,
La Choza,17.0802614,-96.7192191,,,,
La Loma,19.3899001,-104.9635209,,,,
Chez Gardell,19.4175767,-98.1470050,,,,
Fonda,19.2482853,-99.1635792,,,,
"Restaurant ""Parador Maya""",20.6974320,-88.5873111,,,,
Restaurant Fiesta,20.6973064,-88.5868900,,,,
"Restaurant ""El Paso""",20.6969026,-88.5867371,,,,
"Restaurant ""Hacienda Xay-be""",20.6955774,-88.5860184,,,,
"Restaurant-Bar ""Pueblo Maya""",20.6938561,-88.5825042,,,,
"Restaurant ""Sayil""",20.6955425,-88.5851655,,,,
"Restaurant ""San Antonio""",20.6942325,-88.5832284,,,,
"Restaurant ""Las mestizas""",20.6953267,-88.5849241,,,,
Vips,18.4941590,-88.3045800,,,,
El Corazón Parlante,21.0060198,-101.2488009,Paseo de la Presa,,,
La Catrina,27.4991281,-109.9302503,,,,
VIPs,27.5145140,-109.9285880,,,,
La Olla,17.0646755,-96.7218570,Calle de la Reforma,,,Mo-Su 08:00-22:00
Cafetería La Antojería,17.0717674,-96.7212014,,,,
El Morocco Cafe,17.0691874,-96.7201224,Gomez Farias,,,Mo-Sa 08:00-23:00
Cocina Sal y Pimienta,17.0716864,-96.7212102,,,,
Okasa,17.0705440,-96.7210266,,,,
1886,17.0697935,-96.7209631,,,,
Taqueria los amigos,19.2519422,-99.1708950,,,,
Los Torritos,19.2824254,-99.1650489,Calzada de Tlalpan,,,
Antonio's Deli,31.7138286,-106.4114208,,,,
Barrigas,31.7143945,-106.4119281,,,,
,31.7171282,-106.4141148,,,,
El corralito,31.7182175,-106.4150239,,,,
,31.7194250,-106.4160900,,,,
,31.7199286,-106.4165461,,,,
Mexita,17.0633059,-96.7176804,,,,
Mi Ceviche,17.0636576,-96.7181943,Calle de Mariano Abasolo,,,
El Changarro,19.8510514,-97.4957108,,,,
hotel & restaurant la quinta del sol,19.8301373,-96.4476218,,,,
La Cabaña del Tío Yeyo,19.4547761,-96.9808716,,,,
Hey Cocina Nayarit,20.8695898,-105.4390910,Pelicanos,,,
,29.1433471,-111.0187526,,,,
La Michoacana,22.7550286,-102.5367753,,,,
Los Arcos,20.9336051,-89.0175148,,,,
Buutun,20.6685769,-89.7568587,,,,
La Biznaga,17.0663975,-96.7245247,Calle de Manuel García Vigil,,,Mo-Su 13:00-22:00
La Terraza de Tita,17.0646874,-96.7248993,,,,
Zandunga,17.0666473,-96.7244814,,,,
La Cochinita,31.8938609,-116.6962231,,,,
La Estacion,21.2944225,-100.5939167,,,,
El Redil,31.9011154,-116.6910462,,,,
La Casita de Carlo,19.0261931,-98.2049374,,,,
Shark Pescados y Mariscos,19.1449223,-96.1036815,,,,
El sabor de la tradición,17.0626299,-96.7187277,,,,
Redhot,17.0618931,-96.7236690,,,,
Jerónimos Cafetería,17.0619568,-96.7236592,,,,
,17.0621187,-96.7234215,,,,
Viña Santa Fe,17.0620276,-96.7236438,,,,
Lucía,17.0745670,-96.7178457,Eucaliptos,,,
Los Pacos,17.0755668,-96.7190921,Avenida Belisario Domínguez,+52 951 51 5 35 73,,
Hing Long Buffete Chino,19.5279837,-96.9207448,,,,
,19.4319755,-99.1292174,,,,
Pollo Feliz,28.3840589,-105.6252433,,,,
Vips,19.4179158,-99.1053868,,,,
Restuarante La Única,19.8179925,-97.3604459,,,,
Restaurante La Toscana,19.8199481,-97.3608321,,,,
Tacos Paty,19.5131181,-96.9249339,,,,
Delicious Food Yucatán,20.7000875,-88.5873158,Calle 8,,,
Don Juanito,17.0604003,-96.7271432,Calle de Valerio Trujano,,,
El sabor Oaxaqueño,15.8556938,-97.0570534,,,,
La Lanterna,15.8536604,-97.0557640,,,,
Olas Altas,15.8534568,-97.0556367,,,,
Zicatella,15.8543336,-97.0561527,,,,
La flor de Zicatela,15.8514363,-97.0546571,,,,
Tito's Tacos,32.3655606,-117.0547482,,,,
pan:am,17.0645755,-96.7228301,Calle de Mariano Abasolo,,,Tu-Su 09:00-21:00
Los Pacos,17.0644730,-96.7221813,Calle de Mariano Abasolo,+52 951 51 6 17 04,,
Casa Oaxaca,17.0653023,-96.7223764,Calle de la Constitución,+52 951 51 6 85 31,,Mo-Su 13:00-23:00
Merci Repostería y Tentempiés,19.5275466,-96.9157173,Moctezuma,,,
Del Jardín,17.0604083,-96.7259355,,,,
Del Jardín,17.0608307,-96.7258319,,,,
El Asador Vasco,17.0604859,-96.7259165,,,,
La Primavera,17.0609744,-96.7257967,,,,
tres bistro,17.0609130,-96.7258117,Portal de Flores,,,Mo-Su 09:00-22:30
Antojeria la Guille II,19.3663603,-99.1439094,,,,08:00-15:00
Ta Karbón,19.4936836,-96.8859110,Fuente de Santa Cecilia,,,Mo-Sa 18:00-00:00
Little Cesar Pizza,20.5471297,-100.3955473,,,,
,20.5473392,-100.3992215,,,,
,20.5476358,-100.3983025,,,,
Kolobok,19.3813562,-99.1574834,Avenida Universidad,,,Mo-Su 11:00-20:00
La Papa Loca,20.5574654,-100.3966416,Boulevard de las Américas,,,
,20.5647506,-100.4003990,Boulevard de las Américas,,,
Pollos a la Leña,20.5490166,-100.3922673,,,,
Zapata Pizza,20.5583065,-100.3974749,,,,
,20.5562278,-100.3959953,,,,
,20.5585536,-100.3976088,,,,
Restaurante Al Andalus,19.4562429,-96.9577659,5 de Mayo,,,13:00-23:00
Casa de Campo,19.4776038,-96.9499390,,,,
La Casa del Tío Güero,17.0684221,-96.7243214,,,,Mo-Su 07:30-21:00
La Popular,17.0667350,-96.7246715,Calle de Manuel García Vigil,,,
La Cuisine,17.0642574,-96.7247726,,,,
MiniTaj,17.0641626,-96.7248937,,+52 951 50 1 00 00,,
Yayis,17.0641928,-96.7247946,,,,
Molcajetes y cazuelas,20.6950228,-88.5927636,18,,,
Fondaporteña,17.0642799,-96.7248796,,044 951 256 85 50,,
,17.0649615,-96.7250072,,,,
Chilam Balam Restaurant,20.6985942,-88.5933693,,,,
Cielito Lindo,17.0632885,-96.7264158,,,,
El Pombo,17.0631829,-96.7258887,,,,
Tacos Roy,17.0632767,-96.7263567,,,,
Chili's,19.3739666,-99.1632640,,,,
Taqueria Jarocho,20.4770168,-97.0088427,,,,
El Camarón Desvelado,20.4775465,-97.0076559,,,,
Panchita 2,20.4758592,-97.0074081,,,,
Los Jairo´s,20.4753278,-97.0106219,,,,
El buen sazón de Nora,20.4749120,-97.0101565,,,,
L a cabaña del pescador,20.4746415,-97.0092903,,,,
El General,20.4747990,-97.0090663,,,,
El Churro Feliz,19.3325424,-99.1527154,,,,
Hooters,19.3746633,-99.1621614,Avenida Universidad,,,
La Cervecería de Barrio,19.3772367,-99.1609619,,,,
COBÁ FONDA YUCATECA,19.3777118,-99.1605780,Avenida Universidad,,,
EL CALIFA,19.3768118,-99.1607978,,,,
El Afán,19.3808812,-99.1581801,Avenida Universidad,,,
Marina Bistro,19.3808770,-99.1584131,Angel Urraza,,,
Pitas Saleh,19.3829971,-99.1569351,Avenida Universidad,,,
Bistro Cheny,19.3831608,-99.1568700,Avenida Universidad,,,
El Viejo Camilo,19.3857204,-99.1554386,Avenida Universidad,,,
Barnabeu Tapas,19.3872676,-99.1544955,Avenida Universidad,,,
El Sencillito,19.3870500,-99.1541817,Avenida Universidad,,,
Giorgio's Pizzas,19.3868172,-99.1542621,Avenida Universidad,,,
Chester's,19.3821207,-99.1569764,Cuauhtémoc,,,
Ramen -ya,19.3778979,-99.1755226,Fresas,,,
Sushi Roll,19.3765138,-99.1778220,Millet,,,
Pinche Gringo BBQ,19.3931664,-99.1520683,Cumbres de Maltrada,,,We-Fr 13:00-18:30
Trok's torta,19.3760914,-99.1860051,Calle Empresa,,,
California Pizza Kitchen,19.3657407,-99.1666995,,,,
Olive Garden,19.3657340,-99.1675684,,,,
Un Rincon de Chile,19.3723981,-99.1751940,Calle Patricio Sanz,,,
Humbertos,19.3755691,-99.1740300,Patricio Sanz,,,
La Casa del Abuelo,19.3807403,-99.1846878,Avenida Patriotismo,,,
Mikasa Ramen,19.4134484,-99.1635388,San Luis Potosi,,,
Restaurante Shoya,19.3957874,-99.1698465,Pedro Romero de Terreros,,,Mo-Fr 11:00-18:00
Restaurante Hanal K'U,19.3875381,-99.1574158,Calle Concepción Beistegui,,,
California Pizza Kitchen,19.3942982,-99.1726235,,,,
Los Manjares,18.8748487,-99.2194973,,,,
TaCo.,18.8743911,-99.2197472,,,,
El Sagrario,17.0616099,-96.7245161,Calle de Dr. Aurelio Valdivieso,+52 951 51 4 03 03,,
El Andariego,17.0624145,-96.7268890,,,,
Oaxaca de mis sabores,17.0626069,-96.7277185,,,,
Pane En Vía,19.4353890,-99.1734450,Bahía Palmas,,,
Don Capitán Del Valle,19.3672489,-99.1711532,,,,
Sushi Roll,19.3672354,-99.1710333,,,,
Italinnis Universidad,19.3673640,-99.1664371,,,,
Mercado Roma,19.4141237,-99.1645912,,,,
,19.9501146,-99.8450521,,,,
Sushi Roll,19.3639661,-99.1615375,Avenida Popocatépetl,,,12:30-22:00
Maremout,22.2743132,-97.8550354,,,,
La ArracheraExpres,22.2727633,-97.8523034,,,,
Italian Atlantic Pizza,17.2738642,-97.6758970,,,,
Bacan Macut,19.5238171,-96.9257993,,,,
Sportsbar La Esquina Caliente,19.8622150,-90.5111887,Filiberto Qui Farfán,,,15:00+
La Cupula,18.4966875,-97.4537145,,,,Jan-Dec: Mo-Su off
El Pozole,22.1421741,-101.0231725,,,,
Restaurante Qun Xing,19.6514914,-99.2063253,Dr. Jorge Jiménez Cantú,,,10:00-18:30
Lin China,19.6522373,-99.2071406,Temoaya,,,09:00-21:00
Restaurante Norma,19.4682708,-97.6845838,,,,
Cenaduría Tlaquepaque,19.6524159,-99.2112510,Valle de México,,,
"Tacos ""Los güeros""",19.6529659,-99.2113948,Valle de México,,,
Que pichare' he',19.6529804,-99.2110852,Toluca,,,
Churrolandia,19.6533025,-99.2101975,Toluca,,,
Boston Café,19.6530562,-99.2108563,Toluca,,,
El Ciruelo,19.3343107,-99.1781061,,,,
Flor de Lis,19.3350154,-99.1777160,,,,
Monte Kailas,19.3346252,-99.1781048,,,,
Panepis,19.3348340,-99.1780165,,,,
Pizza Copilco,19.3357608,-99.1772736,,,,
Pizza Pazza,19.3346663,-99.1780806,,,,
Tortas Locas Copilco,19.3341403,-99.1776335,,,,
Costillas y Pollos ahumados,19.4703194,-97.6836381,,,,
El Tepehuani Conquistando,19.3762032,-99.1576416,,,,
,19.3786595,-99.1582072,,,,
,19.3788705,-99.1585507,,,,
Humaredas,19.4697313,-96.9469279,,,,
Tortas y Tacos Don Yayo,20.9679748,-101.2857591,Manuel López Sanchéz,,,
Mariscos La Isla,21.1713677,-102.4671529,Ramón Corona,,,
Kinich,20.9359024,-89.0182775,Calle 27,,,Mo-Su 12:00-19:00
Taquería,19.2798160,-99.1685764,,,,
Rioja,19.3416433,-99.1892455,,,,
Casa Gula,19.2901858,-99.1792043,Calle Ayuntamiento,,,
La Casa del Abuelo,19.2911245,-99.1786109,,,,
Las Cazuelitas,19.2903286,-99.1788075,,,,
Taquería Mr. Taco I,19.2908446,-99.1787732,,,,
Las Delicias,19.4096370,-99.1790359,,,,
Los Cerezos,19.4096040,-99.1789892,,,,
Hachet,19.2813188,-99.1782639,,,,
Wings Stop,19.2848093,-99.1759856,,,,
Mariscos El Rincón Jarocho,19.2874553,-99.1744786,,,,
Pizza Estrella,19.2821628,-99.1776893,,,,
Pizzas Ahumadas a la Leña,19.2856585,-99.1757948,,,,
Restaurante Arroyo,19.2874956,-99.1755345,,,,
Birria El Güero,19.4487963,-99.1579553,Salvador Diaz Mirón,,,
Chili's,25.5791265,-100.2492196,,,,
,20.6673279,-100.2397269,,,,
St. Remy du Lac,20.3032952,-103.2650590,Calle Emilano Zapata,,,
Los Bagotes,29.0641760,-111.0048048,,,,
Área de comida,20.7058530,-105.2224212,,,,
El Mercadito,29.0894191,-110.9911386,,,,
Chila King,20.5690420,-100.3032262,,,,
El Típico,17.0674374,-96.7180577,Callejón de Zárate,,,08:30-18:00
Marco Polo,17.0689314,-96.7187610,Calle de José María Pino Suárez,,,Mo-Su 08:00-18:00
El Llano,17.0690074,-96.7187449,,,,
Chachos,17.0709557,-96.7164768,,+52 951 51 3 49 98,,
Tanguyú,17.0681097,-96.7273949,,,,
